province,province_en,name,name_en,category,layer,layer_name,lat,lon,source
ขอนแก่น,Khon Kaen,KKU Learning Center,KKU Learning Center,มหาวิทยาลัย,1,สถานที่สำคัญหลัก,16.476738,102.8236125,OpenStreetMap / Overpass API
ขอนแก่น,Khon Kaen,Mekong Institute,Mekong Institute,มหาวิทยาลัย,1,สถานที่สำคัญหลัก,16.4737243,102.8285149,OpenStreetMap / Overpass API
ขอนแก่น,Khon Kaen,National Biological Control Research Center,National Biological Control Research Center,มหาวิทยาลัย,1,สถานที่สำคัญหลัก,16.4735088,102.811292,OpenStreetMap / Overpass API
ขอนแก่น,Khon Kaen,กองกิจการนักศึกษา,Student Affairs Division,มหาวิทยาลัย,1,สถานที่สำคัญหลัก,16.4778973,102.8202568,OpenStreetMap / Overpass API
ขอนแก่น,Khon Kaen,คณะบริหารธุรกิจและการบัญชี,Faculty Of Business Administration and Accountancy,มหาวิทยาลัย,1,สถานที่สำคัญหลัก,16.4739384,102.8256076,OpenStreetMap / Overpass API
ขอนแก่น,Khon Kaen,คณะพยาบาลศาสตร์,Faculty of Nursing,มหาวิทยาลัย,1,สถานที่สำคัญหลัก,16.4695524,102.825094,OpenStreetMap / Overpass API
ขอนแก่น,Khon Kaen,คณะมนุษยศาสตร์และสังคมศาสตร์,Faculty of Humanities and Social Sciences,มหาวิทยาลัย,1,สถานที่สำคัญหลัก,16.4755065,102.8262861,OpenStreetMap / Overpass API
ขอนแก่น,Khon Kaen,คณะวิทยาศาสตร์,Faculty of Science,มหาวิทยาลัย,1,สถานที่สำคัญหลัก,16.475628,102.8235807,OpenStreetMap / Overpass API
ขอนแก่น,Khon Kaen,คณะวิศวกรรมศาสตร์,Faculty of Engineering,มหาวิทยาลัย,1,สถานที่สำคัญหลัก,16.4725469,102.822909,OpenStreetMap / Overpass API
ขอนแก่น,Khon Kaen,คณะศิลปกรรมศาสตร์,Faculty of Fine and Applied Arts,มหาวิทยาลัย,1,สถานที่สำคัญหลัก,16.4693332,102.8176599,OpenStreetMap / Overpass API
ขอนแก่น,Khon Kaen,คณะสถาปัตยกรรมศาสตร์,Faculty of Architecture,มหาวิทยาลัย,1,สถานที่สำคัญหลัก,16.4717839,102.82764,OpenStreetMap / Overpass API
ขอนแก่น,Khon Kaen,คณะสัตวแพทยศาสตร์,Faculty of Veterinary Medicine,มหาวิทยาลัย,1,สถานที่สำคัญหลัก,16.4783999,102.8312002,OpenStreetMap / Overpass API
ขอนแก่น,Khon Kaen,คณะสาธารณสุขศาสตร์,Faculty of Public Health,มหาวิทยาลัย,1,สถานที่สำคัญหลัก,16.4704803,102.8251806,OpenStreetMap / Overpass API
ขอนแก่น,Khon Kaen,คณะเกษตรศาสตร์,Faculty of Agriculture,มหาวิทยาลัย,1,สถานที่สำคัญหลัก,16.4764079,102.8218693,OpenStreetMap / Overpass API
ขอนแก่น,Khon Kaen,คณะเทคนิคการแพทย์,Faculty of Associated Medical Sciences,มหาวิทยาลัย,1,สถานที่สำคัญหลัก,16.4686958,102.8275336,OpenStreetMap / Overpass API
ขอนแก่น,Khon Kaen,คณะเทคโนโลยี,Faculty of Technology,มหาวิทยาลัย,1,สถานที่สำคัญหลัก,16.4739852,102.8214414,OpenStreetMap / Overpass API
ขอนแก่น,Khon Kaen,คณะเภสัขศาสตร์,Faculty of Pharmaceutical Sciences,มหาวิทยาลัย,1,สถานที่สำคัญหลัก,16.4705936,102.8277097,OpenStreetMap / Overpass API
ขอนแก่น,Khon Kaen,พืซสวน,Horticulture,มหาวิทยาลัย,1,สถานที่สำคัญหลัก,16.4737088,102.813113,OpenStreetMap / Overpass API
ขอนแก่น,Khon Kaen,มหาวิทยาลัยขอนแก่น,Khon Kaen University,มหาวิทยาลัย,1,สถานที่สำคัญหลัก,16.461702,102.8173367,OpenStreetMap / Overpass API
ขอนแก่น,Khon Kaen,มหาวิทยาลัยภาคตะวันออกเฉียงเหนี่อ,North-Eastern University,มหาวิทยาลัย,1,สถานที่สำคัญหลัก,16.4239795,102.8155886,OpenStreetMap / Overpass API
ขอนแก่น,Khon Kaen,มหาวิทยาลัยมหาจุฬาลงกรณราชวิทยาลัย,Mahachulalongkornrajavidyalaya University,มหาวิทยาลัย,1,สถานที่สำคัญหลัก,16.4187025,102.8354935,OpenStreetMap / Overpass API
ขอนแก่น,Khon Kaen,มหาวิทยาลัยมหามกุฏราชวิทยาลัย,Mahamakut Buddhist University Isan Campus,มหาวิทยาลัย,1,สถานที่สำคัญหลัก,16.4615097,102.854545,OpenStreetMap / Overpass API
ขอนแก่น,Khon Kaen,มหาวิทยาลัยเทคโนโลยีราชมงคลอีสสาน,Rajamangala University of Technology Isan,มหาวิทยาลัย,1,สถานที่สำคัญหลัก,16.4306365,102.8635031,OpenStreetMap / Overpass API
ขอนแก่น,Khon Kaen,วิทยาลัยการปกครองท้องถิ่น,College of Local Administration,มหาวิทยาลัย,1,สถานที่สำคัญหลัก,16.4735867,102.8312805,OpenStreetMap / Overpass API
ขอนแก่น,Khon Kaen,ศูนย์หม่อนไหมเฉลิมพระเกียรติฯ ขอนแก่น,Queen Sirikit Sericulture Center Khon Kaen,มหาวิทยาลัย,1,สถานที่สำคัญหลัก,16.4567529,102.721526,OpenStreetMap / Overpass API
ขอนแก่น,Khon Kaen,ศูนย์เมล็ดพันธุ์ข้าว,Rice Seed Centre,มหาวิทยาลัย,1,สถานที่สำคัญหลัก,16.5648696,102.816005,OpenStreetMap / Overpass API
ขอนแก่น,Khon Kaen,สำนักงานอธิการบดี,Office of the President,มหาวิทยาลัย,1,สถานที่สำคัญหลัก,16.4712297,102.8162225,OpenStreetMap / Overpass API
ขอนแก่น,Khon Kaen,สำนักงานอำนวยการ (ศึกษาศาสตร์),,มหาวิทยาลัย,1,สถานที่สำคัญหลัก,16.4503396,102.8168404,OpenStreetMap / Overpass API
ขอนแก่น,Khon Kaen,สำนักวิจัยและพัฒนาการเกษตรเขตที่ 3,Office of Agricultural Research and Development Region 3,มหาวิทยาลัย,1,สถานที่สำคัญหลัก,16.47141,102.833344,OpenStreetMap / Overpass API
ขอนแก่น,Khon Kaen,สำนักเทคโนโลยีดิจิทัล มข.,Office of Digital Technology KKU,มหาวิทยาลัย,1,สถานที่สำคัญหลัก,16.4740063,102.824791,OpenStreetMap / Overpass API
ขอนแก่น,Khon Kaen,สโมสรบุคลากรมหาวิทยาลัยขอนแก่น,KKU Staff Club,มหาวิทยาลัย,1,สถานที่สำคัญหลัก,16.4741708,102.8278706,OpenStreetMap / Overpass API
ขอนแก่น,Khon Kaen,หมวดพืชไร่,Muat Phuet Rai,มหาวิทยาลัย,1,สถานที่สำคัญหลัก,16.4704132,102.811156,OpenStreetMap / Overpass API
ขอนแก่น,Khon Kaen,องค์การนักศึกษา มหาวิทยาลัยขอนแก่น,Khon Kaen University Student Union,มหาวิทยาลัย,1,สถานที่สำคัญหลัก,16.477584,102.8217352,OpenStreetMap / Overpass API
ขอนแก่น,Khon Kaen,อาคารพิมล กลกิจ,Bimala Kalakicha Building,มหาวิทยาลัย,1,สถานที่สำคัญหลัก,16.4741758,102.8270533,OpenStreetMap / Overpass API
ขอนแก่น,Khon Kaen,อาคารเรียนรวมและห้องปฏิบัติการวิจัยคณะแพทยศาสตร์,Faculty of Medicine,มหาวิทยาลัย,1,สถานที่สำคัญหลัก,16.4702272,102.828428,OpenStreetMap / Overpass API
ขอนแก่น,Khon Kaen,โรงเรียนสาธิตมหาวิทยาลัยขอนแก่น ฝ่ายนานาชาติ,Demonstration School Khon Kaen University International Division,มหาวิทยาลัย,1,สถานที่สำคัญหลัก,16.4501564,102.816116,OpenStreetMap / Overpass API
ขอนแก่น,Khon Kaen,โรงเรียนสาธิตมหาวิทยาลัยขอนแก่น ฝ่ายประถมศึกษา,Khon Kaen University Demonstration Elementary School,มหาวิทยาลัย,1,สถานที่สำคัญหลัก,16.4501333,102.818308,OpenStreetMap / Overpass API
ขอนแก่น,Khon Kaen,โรงเรียนสาธิตมหาวิทยาลัยขอนแก่น ฝ่ายมัธยมศึกษา (ศึกษาศาสตร์),"Demonstration School Khon Kaen University, Secondary (Suksasart)",มหาวิทยาลัย,1,สถานที่สำคัญหลัก,16.4516554,102.818404,OpenStreetMap / Overpass API
ขอนแก่น,Khon Kaen,ขอนแก่นเทคโนโลขีพณิชยการ,K-Tech,วิทยาลัย,1,สถานที่สำคัญหลัก,16.4529979,102.84525,OpenStreetMap / Overpass API
ขอนแก่น,Khon Kaen,วิทยาลัยการสาธารณสุขสิรินธร,Sirindhorn College of Public Health,วิทยาลัย,1,สถานที่สำคัญหลัก,16.424917,102.8440162,OpenStreetMap / Overpass API
ขอนแก่น,Khon Kaen,วิทยาลัยบัณฑิตเอเชีย,College of Asian Scholars,วิทยาลัย,1,สถานที่สำคัญหลัก,16.4349317,102.8606352,OpenStreetMap / Overpass API
ขอนแก่น,Khon Kaen,วิทยาลัยสารพัดช่างขอนแก่น,Khon Kaen Polytechnic College,วิทยาลัย,1,สถานที่สำคัญหลัก,16.3310098,102.7990405,OpenStreetMap / Overpass API
ขอนแก่น,Khon Kaen,วิทยาลัยอาชีวศึกษาขอนแก่น,Khon Kaen Vocational College,วิทยาลัย,1,สถานที่สำคัญหลัก,16.4371147,102.8390346,OpenStreetMap / Overpass API
ขอนแก่น,Khon Kaen,วิทยาลัยเทคนิค ขอนแก่น,Khon Kaen Technical College,วิทยาลัย,1,สถานที่สำคัญหลัก,16.4282225,102.846827,OpenStreetMap / Overpass API
ขอนแก่น,Khon Kaen,วิทยาลัยเทคโนโลยีขอนแก่น,Khon Kaen Technology College,วิทยาลัย,1,สถานที่สำคัญหลัก,16.455413,102.8295209,OpenStreetMap / Overpass API
ขอนแก่น,Khon Kaen,โรงเรียนขอนแก่นบริหารธุรกิจ,KBAC,วิทยาลัย,1,สถานที่สำคัญหลัก,16.4545827,102.8422247,OpenStreetMap / Overpass API
ขอนแก่น,Khon Kaen,โรงเรียนเทคโนโลยีภาคตะวันออกเฉียงเหนี่อ,North-Eastern Technology,วิทยาลัย,1,สถานที่สำคัญหลัก,16.4218456,102.8182756,OpenStreetMap / Overpass API
ขอนแก่น,Khon Kaen,Samran public hall,,ศาลากลาง/ที่ว่าการ,1,สถานที่สำคัญหลัก,16.5360585,102.8278725,OpenStreetMap / Overpass API
ขอนแก่น,Khon Kaen,ที่ว่าการอำเภอเมืองขอนแก่น,Government Office Amphoe Mueang Khon Kaen,ศาลากลาง/ที่ว่าการ,1,สถานที่สำคัญหลัก,16.4384792,102.8390675,OpenStreetMap / Overpass API
ขอนแก่น,Khon Kaen,ศาลากลางจังหวัดขอนแก่น,Province Hall Khon Kaen,ศาลากลาง/ที่ว่าการ,1,สถานที่สำคัญหลัก,16.4425515,102.8360372,OpenStreetMap / Overpass API
ขอนแก่น,Khon Kaen,ศาลาประชาคมจังหวัดขอนแก่น,Community Hall Province Khon Kaen,ศาลากลาง/ที่ว่าการ,1,สถานที่สำคัญหลัก,16.4421141,102.837162,OpenStreetMap / Overpass API
ขอนแก่น,Khon Kaen,องค์การบริหารส่วนจังหวัดขอนแก่น,Khon Kaen Provincial Administrative Organization,ศาลากลาง/ที่ว่าการ,1,สถานที่สำคัญหลัก,16.4445077,102.8356248,OpenStreetMap / Overpass API
ขอนแก่น,Khon Kaen,เทศบาลตำบลบ้านเป็ด,Tambon Ban Pet Municipality,ศาลากลาง/ที่ว่าการ,1,สถานที่สำคัญหลัก,16.4377215,102.7649069,OpenStreetMap / Overpass API
ขอนแก่น,Khon Kaen,Khon kaen bus terminal2,Khon kaen bus terminal2,สถานีขนส่ง,1,สถานที่สำคัญหลัก,16.4340846,102.8368984,OpenStreetMap / Overpass API
ขอนแก่น,Khon Kaen,ขอนเเก่นขนส่ง,,สถานีขนส่ง,1,สถานที่สำคัญหลัก,16.3860833,102.8261023,OpenStreetMap / Overpass API
ขอนแก่น,Khon Kaen,สถานีขนส่งจังหวัดขอนแก่นแห่งที่ 2,Khon Kaen Van Terminal,สถานีขนส่ง,1,สถานที่สำคัญหลัก,16.4333558,102.836545,OpenStreetMap / Overpass API
ขอนแก่น,Khon Kaen,สถานีขนส่งจังหวัดขอนแก่นแห่งที่ 3,"Khon Kaen Bus Terminal 3 (to Ubon, Chiang Mai, Mae Sot)",สถานีขนส่ง,1,สถานที่สำคัญหลัก,16.3902727,102.8047367,OpenStreetMap / Overpass API
ขอนแก่น,Khon Kaen,สถานีขนส่งปรับอากาศจังหวัดขอนแก่น,,สถานีขนส่ง,1,สถานที่สำคัญหลัก,16.4333461,102.8005061,Google Maps
ขอนแก่น,Khon Kaen,สถานีขนส่งผู้โดยสารจังหวัดขอนแก่นแห่งที่ 3,,สถานีขนส่ง,1,สถานที่สำคัญหลัก,16.3901874,102.7686547,Google Maps
ขอนแก่น,Khon Kaen,สถานีรถขนส่งผู้โดยสาร,Khon Kaen Bus Terminal,สถานีขนส่ง,1,สถานที่สำคัญหลัก,16.4396683,102.8328613,OpenStreetMap / Overpass API
ขอนแก่น,Khon Kaen,ขอนแก่น,Khon Kaen,สถานีรถไฟ,1,สถานที่สำคัญหลัก,16.4268083,102.8256655,OpenStreetMap / Overpass API
ขอนแก่น,Khon Kaen,ท่าพระ,Tha Phra,สถานีรถไฟ,1,สถานที่สำคัญหลัก,16.3385983,102.8046708,OpenStreetMap / Overpass API
ขอนแก่น,Khon Kaen,สำราญ,Samran,สถานีรถไฟ,1,สถานที่สำคัญหลัก,16.517094,102.8430467,OpenStreetMap / Overpass API
ขอนแก่น,Khon Kaen,ท่าอากาศยานขอนแก่น,Khon Kaen Airport (KKC),สนามบิน,1,สถานที่สำคัญหลัก,16.4646585,102.7866638,OpenStreetMap / Overpass API
ขอนแก่น,Khon Kaen,ท่าอากาศยานขอนแก่น,Khon Kaen Airport,สนามบิน,1,สถานที่สำคัญหลัก,16.4662184,102.7834203,OpenStreetMap / Overpass API
ขอนแก่น,Khon Kaen,Khon Kaen Immigration Office,,หน่วยงานรัฐ,1,สถานที่สำคัญหลัก,16.5887944,102.8191012,OpenStreetMap / Overpass API
ขอนแก่น,Khon Kaen,Tourism Authority of Thailand,Tourism Authority of Thailand,หน่วยงานรัฐ,1,สถานที่สำคัญหลัก,16.4158729,102.8347878,OpenStreetMap / Overpass API
ขอนแก่น,Khon Kaen,กองฝึกอบรมภูมิภาค2 การประปาส่วนภูมิภาค,Provincial Waterworks Authority Nai Mueang,หน่วยงานรัฐ,1,สถานที่สำคัญหลัก,16.4074555,102.8326914,OpenStreetMap / Overpass API
ขอนแก่น,Khon Kaen,คณะนิติศาสตร์,Faculty of Law,หน่วยงานรัฐ,1,สถานที่สำคัญหลัก,16.4501974,102.8152704,OpenStreetMap / Overpass API
ขอนแก่น,Khon Kaen,คณะวิทยาศาสตร์ ตึก SC06,,หน่วยงานรัฐ,1,สถานที่สำคัญหลัก,16.4740908,102.8234441,OpenStreetMap / Overpass API
ขอนแก่น,Khon Kaen,ที่ทำการกำนันตำบลศิลา,Sila Subdistrict Headman's Office,หน่วยงานรัฐ,1,สถานที่สำคัญหลัก,16.497838,102.8363719,OpenStreetMap / Overpass API
ขอนแก่น,Khon Kaen,ศูนย์บริหารศัตรูพืช จังหวัดขอนแก่น,Khon Kaen Pest Management Center,หน่วยงานรัฐ,1,สถานที่สำคัญหลัก,16.4826176,102.8320444,OpenStreetMap / Overpass API
ขอนแก่น,Khon Kaen,ศูนย์ส่งเสริมอุตสาหกรรมภาคที่๕,Industrial Promotion Center Region 5,หน่วยงานรัฐ,1,สถานที่สำคัญหลัก,16.562903,102.823399,OpenStreetMap / Overpass API
ขอนแก่น,Khon Kaen,ศูนย์ส่งเสริมเทคโนโลยีการเกษตร ด้านการอารักขาพืช จังหวัดขอนแก่น,Khon Kaen Agricultural Technology Promotion Center,หน่วยงานรัฐ,1,สถานที่สำคัญหลัก,16.4823839,102.8321385,OpenStreetMap / Overpass API
ขอนแก่น,Khon Kaen,สำนักงานการค้าภายในจังหวัดขอนแก่น,Department of Internal Trade Khon Kaen,หน่วยงานรัฐ,1,สถานที่สำคัญหลัก,16.4133537,102.8319303,OpenStreetMap / Overpass API
ขอนแก่น,Khon Kaen,สำนักงานการปฎิรูปที่ดินจังหวัดขอนแก่น,Samnakngan Kan Pati Rup Thidin Changwat Khon Kaen,หน่วยงานรัฐ,1,สถานที่สำคัญหลัก,16.4304672,102.866173,OpenStreetMap / Overpass API
ขอนแก่น,Khon Kaen,สำนักงานขนส่งจังหวัดขอนแกน แห่งที่ 1,Khon Kaen Land Transportation Authority Office 1,หน่วยงานรัฐ,1,สถานที่สำคัญหลัก,16.4422332,102.8395524,OpenStreetMap / Overpass API
ขอนแก่น,Khon Kaen,สำนักงานจัดรูปที่ดิน จังหวัดขอนแก่น,Khon Kaen Provincial Land Department,หน่วยงานรัฐ,1,สถานที่สำคัญหลัก,16.4324501,102.8671119,OpenStreetMap / Overpass API
ขอนแก่น,Khon Kaen,สำนักงานทางหลวงชนบทที่ 6 ขอนแก่น,Khon Kaen Rural Roads Administration 6,หน่วยงานรัฐ,1,สถานที่สำคัญหลัก,16.5647112,102.823239,OpenStreetMap / Overpass API
ขอนแก่น,Khon Kaen,สำนักงานสรรพสามิตพื้นที่ขอนแก่น,Area Excise Office Khon Kaen,หน่วยงานรัฐ,1,สถานที่สำคัญหลัก,16.4069442,102.7638202,OpenStreetMap / Overpass API
ขอนแก่น,Khon Kaen,สำนักงานสรรพากรพื้นที่ขอนแก่น,Khon Kaen Area Revenue Office,หน่วยงานรัฐ,1,สถานที่สำคัญหลัก,16.4071809,102.7628654,OpenStreetMap / Overpass API
ขอนแก่น,Khon Kaen,สำนักงานสาธารณสุข อำเภอเมือง,Mueang District Public Health Office,หน่วยงานรัฐ,1,สถานที่สำคัญหลัก,16.4308653,102.8890389,OpenStreetMap / Overpass API
ขอนแก่น,Khon Kaen,สำนักงานเทศบาลตำบลพระลับ,Phra Lap Subdistrict Administration Office,หน่วยงานรัฐ,1,สถานที่สำคัญหลัก,16.4152124,102.900224,OpenStreetMap / Overpass API
ขอนแก่น,Khon Kaen,สำนักงานเทศบาลนครขอนแก่น,Khon Kaen Municipality Office,หน่วยงานรัฐ,1,สถานที่สำคัญหลัก,16.4297599,102.8296588,OpenStreetMap / Overpass API
ขอนแก่น,Khon Kaen,หมวดทางหลวง พระลับ,Pralub Highway Depot,หน่วยงานรัฐ,1,สถานที่สำคัญหลัก,16.4331344,102.8930274,OpenStreetMap / Overpass API
ขอนแก่น,Khon Kaen,หมวดทางหลวง ศิลา,Sila Highway Depot,หน่วยงานรัฐ,1,สถานที่สำคัญหลัก,16.5002348,102.8321649,OpenStreetMap / Overpass API
ขอนแก่น,Khon Kaen,เทศบาลตำบล บึงเนียม,Bungniam Municipality,หน่วยงานรัฐ,1,สถานที่สำคัญหลัก,16.4382384,102.9316673,OpenStreetMap / Overpass API
ขอนแก่น,Khon Kaen,โครงการชลประทาน ขอนแก่น,Khon Kaen Irrigation Department,หน่วยงานรัฐ,1,สถานที่สำคัญหลัก,16.4444948,102.8294107,OpenStreetMap / Overpass API
ขอนแก่น,Khon Kaen,Ozone Village Khon Kaen,,ห้างสรรพสินค้า,1,สถานที่สำคัญหลัก,16.4343162,102.7670159,Google Maps
ขอนแก่น,Khon Kaen,Ozone village,Ozone village,ห้างสรรพสินค้า,1,สถานที่สำคัญหลัก,16.4364624,102.8304053,OpenStreetMap / Overpass API
ขอนแก่น,Khon Kaen,สหสินเทรดดิ้ง หจก.,Sahasin trading,ห้างสรรพสินค้า,1,สถานที่สำคัญหลัก,16.4355806,102.8150303,OpenStreetMap / Overpass API
ขอนแก่น,Khon Kaen,ห้างสรรพสินค้าเซ็นทรัล ขอนแก่น,,ห้างสรรพสินค้า,1,สถานที่สำคัญหลัก,16.446387,102.8262336,Google Maps
ขอนแก่น,Khon Kaen,ฮักส์ มอลล์,,ห้างสรรพสินค้า,1,สถานที่สำคัญหลัก,16.4313532,102.7585805,Google Maps
ขอนแก่น,Khon Kaen,เซนทรัล,,ห้างสรรพสินค้า,1,สถานที่สำคัญหลัก,16.433502,102.826228,OpenStreetMap / Overpass API
ขอนแก่น,Khon Kaen,เซนโทซ่า,Sentosa,ห้างสรรพสินค้า,1,สถานที่สำคัญหลัก,16.4398857,102.8249813,OpenStreetMap / Overpass API
ขอนแก่น,Khon Kaen,เซนโทซ่า,Sentosa,ห้างสรรพสินค้า,1,สถานที่สำคัญหลัก,16.4287781,102.8351928,OpenStreetMap / Overpass API
ขอนแก่น,Khon Kaen,เซ็นทรัล ขอนแก่น,,ห้างสรรพสินค้า,1,สถานที่สำคัญหลัก,16.4321162,102.7648245,Google Maps
ขอนแก่น,Khon Kaen,เซ็นทรัลพลาซา,Centralplaza Khon Kaen,ห้างสรรพสินค้า,1,สถานที่สำคัญหลัก,16.433781,102.8255475,OpenStreetMap / Overpass API
ขอนแก่น,Khon Kaen,แฟรี่พลาซ่า,Fairy Plaza,ห้างสรรพสินค้า,1,สถานที่สำคัญหลัก,16.4232383,102.8339035,OpenStreetMap / Overpass API
ขอนแก่น,Khon Kaen,โรบินสัน,Robinson,ห้างสรรพสินค้า,1,สถานที่สำคัญหลัก,16.4337702,102.826228,OpenStreetMap / Overpass API
ขอนแก่น,Khon Kaen,ศูนย์รังสีรักษาและเคมีบำบัด โรงพยาบาลขอนแก่น,,โรงพยาบาล,1,สถานที่สำคัญหลัก,16.4286173,102.8448803,OpenStreetMap / Overpass API
ขอนแก่น,Khon Kaen,ศูนย์อนามัยที่ 6,Regional Health Promotion Center 6,โรงพยาบาล,1,สถานที่สำคัญหลัก,16.429482,102.8510992,OpenStreetMap / Overpass API
ขอนแก่น,Khon Kaen,ศูนย์แพทย์ชาตะผดุง,Chata Phadung Health Center,โรงพยาบาล,1,สถานที่สำคัญหลัก,16.420118,102.8495161,OpenStreetMap / Overpass API
ขอนแก่น,Khon Kaen,โรงพยาบาล วัดหนองแวง,Wat Nong Waeng Hospital,โรงพยาบาล,1,สถานที่สำคัญหลัก,16.4088975,102.835041,OpenStreetMap / Overpass API
ขอนแก่น,Khon Kaen,โรงพยาบาลกรุงเทพ,Bangkok Hospital,โรงพยาบาล,1,สถานที่สำคัญหลัก,16.4420747,102.8200449,OpenStreetMap / Overpass API
ขอนแก่น,Khon Kaen,โรงพยาบาลขอนแก่น ราม,,โรงพยาบาล,1,สถานที่สำคัญหลัก,16.4292837,102.813182,Google Maps
ขอนแก่น,Khon Kaen,โรงพยาบาลขอนแก่นราม,Khon Kaen Ram Hospital,โรงพยาบาล,1,สถานที่สำคัญหลัก,16.433636,102.8210662,OpenStreetMap / Overpass API
ขอนแก่น,Khon Kaen,โรงพยาบาลจิตเวชขอนแก่นราชนครินทร์,Khon Kaen Rajanagarindra Psychiatric Hospital,โรงพยาบาล,1,สถานที่สำคัญหลัก,16.424786,102.849015,OpenStreetMap / Overpass API
ขอนแก่น,Khon Kaen,โรงพยาบาลราชพฤกษ์,Ratchapreuk Hospital,โรงพยาบาล,1,สถานที่สำคัญหลัก,16.4353594,102.824182,OpenStreetMap / Overpass API
ขอนแก่น,Khon Kaen,โรงพยาบาลราชพฤกษ์,Ratchaphruek Hospital,โรงพยาบาล,1,สถานที่สำคัญหลัก,16.4489347,102.8303815,OpenStreetMap / Overpass API
ขอนแก่น,Khon Kaen,โรงพยาบาลศรีนครินทร์,Srinagarind Hospital,โรงพยาบาล,1,สถานที่สำคัญหลัก,16.4682595,102.8302327,OpenStreetMap / Overpass API
ขอนแก่น,Khon Kaen,โรงพยาบาลศรีนครินทร์,,โรงพยาบาล,1,สถานที่สำคัญหลัก,16.4680574,102.7940052,Google Maps
ขอนแก่น,Khon Kaen,โรงพยาบาลศูนย์ขอนแก่น,Khon Kaen Provincial Hospital,โรงพยาบาล,1,สถานที่สำคัญหลัก,16.4305641,102.8488059,OpenStreetMap / Overpass API
ขอนแก่น,Khon Kaen,โรงพยาบาลสัตว์ขวัญคำ ขอนแก่น,,โรงพยาบาล,1,สถานที่สำคัญหลัก,16.500134,102.842573,OpenStreetMap / Overpass API
ขอนแก่น,Khon Kaen,Big C,Big C,ไฮเปอร์มาร์เก็ต,1,สถานที่สำคัญหลัก,16.4248983,102.819077,OpenStreetMap / Overpass API
ขอนแก่น,Khon Kaen,Big C,,ไฮเปอร์มาร์เก็ต,1,สถานที่สำคัญหลัก,16.3905416,102.8387186,OpenStreetMap / Overpass API
ขอนแก่น,Khon Kaen,Big C Mini ชุมชนหนองไผ่ ขอนแก่น,,ไฮเปอร์มาร์เก็ต,1,สถานที่สำคัญหลัก,16.4861303,102.7389093,Google Maps
ขอนแก่น,Khon Kaen,Big C Mini ศรีมารัตน์ 26 ขอนแก่น,,ไฮเปอร์มาร์เก็ต,1,สถานที่สำคัญหลัก,16.4528861,102.751946,Google Maps
ขอนแก่น,Khon Kaen,Big C Mini ศรีมารัตน์ 26 ขอนแก่น,,ไฮเปอร์มาร์เก็ต,1,สถานที่สำคัญหลัก,16.4247943,102.7473624,Google Maps
ขอนแก่น,Khon Kaen,Home Pro,,ไฮเปอร์มาร์เก็ต,1,สถานที่สำคัญหลัก,16.4087593,102.8180027,OpenStreetMap / Overpass API
ขอนแก่น,Khon Kaen,Lotus's,Lotus's,ไฮเปอร์มาร์เก็ต,1,สถานที่สำคัญหลัก,16.4232718,102.833852,OpenStreetMap / Overpass API
ขอนแก่น,Khon Kaen,Lotus's,,ไฮเปอร์มาร์เก็ต,1,สถานที่สำคัญหลัก,16.401113,102.8167246,OpenStreetMap / Overpass API
ขอนแก่น,Khon Kaen,Lotus's Go Fresh สาขาเคหะ ขอนแก่น,,ไฮเปอร์มาร์เก็ต,1,สถานที่สำคัญหลัก,16.4694702,102.7565932,Google Maps
ขอนแก่น,Khon Kaen,Makro,,ไฮเปอร์มาร์เก็ต,1,สถานที่สำคัญหลัก,16.4050457,102.8136406,OpenStreetMap / Overpass API
ขอนแก่น,Khon Kaen,ดูโฮม,DO HOME,ไฮเปอร์มาร์เก็ต,1,สถานที่สำคัญหลัก,16.5170133,102.8347407,OpenStreetMap / Overpass API
ขอนแก่น,Khon Kaen,บิ๊กซี ซูเปอร์เซ็นเตอร์ ขอนแก่น 1,,ไฮเปอร์มาร์เก็ต,1,สถานที่สำคัญหลัก,16.4353197,102.7848739,Google Maps
ขอนแก่น,Khon Kaen,แม็คโคร,Makro,ไฮเปอร์มาร์เก็ต,1,สถานที่สำคัญหลัก,16.493835,102.8310187,OpenStreetMap / Overpass API
ขอนแก่น,Khon Kaen,โกลอบอลเฮ้าส์,Global House,ไฮเปอร์มาร์เก็ต,1,สถานที่สำคัญหลัก,16.4448385,102.7813359,OpenStreetMap / Overpass API
ขอนแก่น,Khon Kaen,โลตัส ขอนแก่น,,ไฮเปอร์มาร์เก็ต,1,สถานที่สำคัญหลัก,16.4457134,102.819874,Google Maps
ขอนแก่น,Khon Kaen,โลตัส ขอนแก่น,,ไฮเปอร์มาร์เก็ต,1,สถานที่สำคัญหลัก,16.4007698,102.7445532,Google Maps
ขอนแก่น,Khon Kaen,โลตัส ขอนแก่น 2,,ไฮเปอร์มาร์เก็ต,1,สถานที่สำคัญหลัก,16.4073561,102.755592,Google Maps
ขอนแก่น,Khon Kaen,โลตัส โก เฟรช มินิ ซูเปอร์มาร์เก็ต ถนนศิลปสนิท,,ไฮเปอร์มาร์เก็ต,1,สถานที่สำคัญหลัก,16.3993272,102.7591177,Google Maps
ขอนแก่น,Khon Kaen,โลตัส โก เฟรช มินิ ซูเปอร์มาร์เก็ต มหาวิทยาลัยขอนแก่น,,ไฮเปอร์มาร์เก็ต,1,สถานที่สำคัญหลัก,16.4852194,102.7680946,Google Maps
ขอนแก่น,Khon Kaen,โลตัส โก เฟรช มินิ ซูเปอร์มาร์เก็ต มหาวิทยาลัยขอนแก่น,,ไฮเปอร์มาร์เก็ต,1,สถานที่สำคัญหลัก,16.4643405,102.7559991,Google Maps
ขอนแก่น,Khon Kaen,โลตัส โก เฟรช มินิ ซูเปอร์มาร์เก็ต มหาวิทยาลัยขอนแก่น,,ไฮเปอร์มาร์เก็ต,1,สถานที่สำคัญหลัก,16.4920041,102.7592028,Google Maps
ขอนแก่น,Khon Kaen,โลตัสบึงหนองโคตร,,ไฮเปอร์มาร์เก็ต,1,สถานที่สำคัญหลัก,16.4377797,102.7176753,Google Maps
ขอนแก่น,Khon Kaen,โฮมมาร์ท,Home Mart,ไฮเปอร์มาร์เก็ต,1,สถานที่สำคัญหลัก,16.3884421,102.82452,OpenStreetMap / Overpass API
ขอนแก่น,Khon Kaen,โฮมฮับ,Home Hub,ไฮเปอร์มาร์เก็ต,1,สถานที่สำคัญหลัก,16.3917706,102.813642,OpenStreetMap / Overpass API
ขอนแก่น,Khon Kaen,ไทวัสดุ,Thai Watsadu,ไฮเปอร์มาร์เก็ต,1,สถานที่สำคัญหลัก,16.5241159,102.8299575,OpenStreetMap / Overpass API
ขอนแก่น,Khon Kaen,ไพรัช โฮมเดคคอร์,Pairach Home Decor,ไฮเปอร์มาร์เก็ต,1,สถานที่สำคัญหลัก,16.4453071,102.7853888,OpenStreetMap / Overpass API
ขอนแก่น,Khon Kaen,PLซีฟู๊ด,,บึง/ทะเลสาบ,2,จุดอัตลักษณ์พื้นที่,16.4146934,102.8381977,Google Maps
ขอนแก่น,Khon Kaen,บึงทุ่งสร้าง,Bueng Thungsang,บึง/ทะเลสาบ,2,จุดอัตลักษณ์พื้นที่,16.4454482,102.8556338,OpenStreetMap / Overpass API
ขอนแก่น,Khon Kaen,บึงศรีฐาน,Si Than Lake,บึง/ทะเลสาบ,2,จุดอัตลักษณ์พื้นที่,16.4438384,102.8172286,OpenStreetMap / Overpass API
ขอนแก่น,Khon Kaen,บึงหนองเอียด,Nong-iad Lake,บึง/ทะเลสาบ,2,จุดอัตลักษณ์พื้นที่,16.4437168,102.811756,OpenStreetMap / Overpass API
ขอนแก่น,Khon Kaen,บึงแก่นนคร (เมืองขอนแก่น),,บึง/ทะเลสาบ,2,จุดอัตลักษณ์พื้นที่,16.4149865,102.8366624,Google Maps
ขอนแก่น,Khon Kaen,บึงแก่นนคร (เมืองขอนแก่น),,บึง/ทะเลสาบ,2,จุดอัตลักษณ์พื้นที่,16.4146934,102.8336916,Google Maps
ขอนแก่น,Khon Kaen,สระน้ำ,,บึง/ทะเลสาบ,2,จุดอัตลักษณ์พื้นที่,16.4186429,102.818562,OpenStreetMap / Overpass API
ขอนแก่น,Khon Kaen,สระพลาสติก,,บึง/ทะเลสาบ,2,จุดอัตลักษณ์พื้นที่,16.4729514,102.8192552,OpenStreetMap / Overpass API
ขอนแก่น,Khon Kaen,สวนสาธารณะบึงแก่นนคร.,,บึง/ทะเลสาบ,2,จุดอัตลักษณ์พื้นที่,16.4170864,102.830621,Google Maps
ขอนแก่น,Khon Kaen,ประตูเมือง ขอนแก่น,Khon Kaen City Gate,ประตูเมือง,2,จุดอัตลักษณ์พื้นที่,16.4319073,102.8251312,OpenStreetMap / Overpass API
ขอนแก่น,Khon Kaen,Science Museum Khon Kaen University,Science Museum Khon Kaen University,พิพิธภัณฑ์,2,จุดอัตลักษณ์พื้นที่,16.4475803,102.8122012,OpenStreetMap / Overpass API
ขอนแก่น,Khon Kaen,พิพิธภัณฑสถานแห่งชาติ ขอนแก่น,Khon Kaen National Museum,พิพิธภัณฑ์,2,จุดอัตลักษณ์พื้นที่,16.4461433,102.8386592,OpenStreetMap / Overpass API
ขอนแก่น,Khon Kaen,พิพิธภัณฑสถานแห่งชาติ ขอนแก่น,,พิพิธภัณฑ์,2,จุดอัตลักษณ์พื้นที่,16.364227,102.5530928,Google Maps
ขอนแก่น,Khon Kaen,พิพิธภัณฑ์ประวัติศาสตร์ธรรมชาติ มหาวิทยาลัยขอนแก่น,Natural History Museum Khon Kaen University,พิพิธภัณฑ์,2,จุดอัตลักษณ์พื้นที่,16.445818,102.8109136,OpenStreetMap / Overpass API
ขอนแก่น,Khon Kaen,พิพิธภัณฑ์วิทยาศาสตร์ มหาวิทยาลัยขอนแก่น,,พิพิธภัณฑ์,2,จุดอัตลักษณ์พื้นที่,16.4477839,102.2357636,Google Maps
ขอนแก่น,Khon Kaen,ศูนย์วิทยาศาสตร์เพื่อการศึกษาจังหวัดขอนแก่น กรมส่งเสริมการเรียนรู้ กระทรวงศึกษาธิการ,,พิพิธภัณฑ์,2,จุดอัตลักษณ์พื้นที่,16.0505375,102.1396864,Google Maps
ขอนแก่น,Khon Kaen,ศูนย์ศึกษาวิจัยและพิพิธภัณฑ์ไดโนเสาร์ (พิพิธภัณฑ์ไดโนเสาร์ภูเวียง),,พิพิธภัณฑ์,2,จุดอัตลักษณ์พื้นที่,16.6779164,101.6902729,Google Maps
ขอนแก่น,Khon Kaen,หอศิลปวัฒนธรรมมหาวิทยาลัยขอนแก่น,Art and Culture University Museum,พิพิธภัณฑ์,2,จุดอัตลักษณ์พื้นที่,16.4451153,102.8145226,OpenStreetMap / Overpass API
ขอนแก่น,Khon Kaen,โฮงมูนมังเมืองขอนแกน,Hong Mun Mang Khon Kaen City Museum,พิพิธภัณฑ์,2,จุดอัตลักษณ์พื้นที่,16.4196107,102.8390605,OpenStreetMap / Overpass API
ขอนแก่น,Khon Kaen,โฮงมูนมังเมืองขอนแก่น,,พิพิธภัณฑ์,2,จุดอัตลักษณ์พื้นที่,16.446195,102.2618456,Google Maps
ขอนแก่น,Khon Kaen,พระมหาธาตุแก่นนคร,Phra Mahathat Kaen Nakhon,วัด/ศาสนสถาน,2,จุดอัตลักษณ์พื้นที่,16.4080915,102.8342977,OpenStreetMap / Overpass API
ขอนแก่น,Khon Kaen,Khon Kean Central Stadium - Signage,,ศูนย์กีฬา,2,จุดอัตลักษณ์พื้นที่,16.413998,102.8270288,OpenStreetMap / Overpass API
ขอนแก่น,Khon Kaen,Raja Sport Club,,ศูนย์กีฬา,2,จุดอัตลักษณ์พื้นที่,16.4971008,102.8296172,OpenStreetMap / Overpass API
ขอนแก่น,Khon Kaen,Sports Complex,,ศูนย์กีฬา,2,จุดอัตลักษณ์พื้นที่,16.4768872,102.8139937,OpenStreetMap / Overpass API
ขอนแก่น,Khon Kaen,สนามกีฬาจังหวัดขอนแก่น,Khon Kaen Sport Stadium,ศูนย์กีฬา,2,จุดอัตลักษณ์พื้นที่,16.4131174,102.8276762,OpenStreetMap / Overpass API
ขอนแก่น,Khon Kaen,สนามกีฬามหาวิทยาลัย,KKU Sports Complex,ศูนย์กีฬา,2,จุดอัตลักษณ์พื้นที่,16.4761926,102.8177743,OpenStreetMap / Overpass API
ขอนแก่น,Khon Kaen,สนามกีฬาสีฐาน,Sithan Sports Around,ศูนย์กีฬา,2,จุดอัตลักษณ์พื้นที่,16.4540437,102.8175734,OpenStreetMap / Overpass API
ขอนแก่น,Khon Kaen,Hugz Mall,,สถานที่ท่องเที่ยว,2,จุดอัตลักษณ์พื้นที่,16.4315206,102.8308415,OpenStreetMap / Overpass API
ขอนแก่น,Khon Kaen,Night Market,Night Market,สถานที่ท่องเที่ยว,2,จุดอัตลักษณ์พื้นที่,16.4256156,102.834309,OpenStreetMap / Overpass API
ขอนแก่น,Khon Kaen,Night Market,,สถานที่ท่องเที่ยว,2,จุดอัตลักษณ์พื้นที่,16.4218468,102.8373271,OpenStreetMap / Overpass API
ขอนแก่น,Khon Kaen,Saturday Walking Street,Saturday Walking Street,สถานที่ท่องเที่ยว,2,จุดอัตลักษณ์พื้นที่,16.4403474,102.8357744,OpenStreetMap / Overpass API
ขอนแก่น,Khon Kaen,columbo craft village,,สถานที่ท่องเที่ยว,2,จุดอัตลักษณ์พื้นที่,16.4788869,102.8054651,OpenStreetMap / Overpass API
ขอนแก่น,Khon Kaen,csk กุดกว้าง,CSK,สถานที่ท่องเที่ยว,2,จุดอัตลักษณ์พื้นที่,16.3655669,102.8064998,OpenStreetMap / Overpass API
ขอนแก่น,Khon Kaen,ครัวลุงต๋อย,,สถานที่ท่องเที่ยว,2,จุดอัตลักษณ์พื้นที่,16.4393982,102.7956938,OpenStreetMap / Overpass API
ขอนแก่น,Khon Kaen,ต้อมมินิมาร์ท,,สถานที่ท่องเที่ยว,2,จุดอัตลักษณ์พื้นที่,16.5426778,102.6871481,OpenStreetMap / Overpass API
ขอนแก่น,Khon Kaen,นาซ่า,,สถานที่ท่องเที่ยว,2,จุดอัตลักษณ์พื้นที่,16.4352329,102.7727021,OpenStreetMap / Overpass API
ขอนแก่น,Khon Kaen,น้องเดียร์,,สถานที่ท่องเที่ยว,2,จุดอัตลักษณ์พื้นที่,16.45446,102.7970108,OpenStreetMap / Overpass API
ขอนแก่น,Khon Kaen,บัวทิพย์,,สถานที่ท่องเที่ยว,2,จุดอัตลักษณ์พื้นที่,16.4269292,102.8046808,OpenStreetMap / Overpass API
ขอนแก่น,Khon Kaen,บีมาร์ท,,สถานที่ท่องเที่ยว,2,จุดอัตลักษณ์พื้นที่,16.4376311,102.7933786,OpenStreetMap / Overpass API
ขอนแก่น,Khon Kaen,บ้านน้องธัน,,สถานที่ท่องเที่ยว,2,จุดอัตลักษณ์พื้นที่,16.3748868,102.8135904,OpenStreetMap / Overpass API
ขอนแก่น,Khon Kaen,พิไล,,สถานที่ท่องเที่ยว,2,จุดอัตลักษณ์พื้นที่,16.4385049,102.7982899,OpenStreetMap / Overpass API
ขอนแก่น,Khon Kaen,ร้านเบียร์บูด,,สถานที่ท่องเที่ยว,2,จุดอัตลักษณ์พื้นที่,16.4391064,102.7965955,OpenStreetMap / Overpass API
ขอนแก่น,Khon Kaen,ส.ประสิทธิ์,,สถานที่ท่องเที่ยว,2,จุดอัตลักษณ์พื้นที่,16.511385,102.6880457,OpenStreetMap / Overpass API
ขอนแก่น,Khon Kaen,สิมอีสาน,Sim Esaan,สถานที่ท่องเที่ยว,2,จุดอัตลักษณ์พื้นที่,16.4254546,102.8858246,OpenStreetMap / Overpass API
ขอนแก่น,Khon Kaen,เกษตรมงคล,,สถานที่ท่องเที่ยว,2,จุดอัตลักษณ์พื้นที่,16.4881718,102.8891008,OpenStreetMap / Overpass API
ขอนแก่น,Khon Kaen,เป็นหนึ่ง,,สถานที่ท่องเที่ยว,2,จุดอัตลักษณ์พื้นที่,16.4352443,102.7520558,OpenStreetMap / Overpass API
ขอนแก่น,Khon Kaen,เอ๋ท่าพระ,,สถานที่ท่องเที่ยว,2,จุดอัตลักษณ์พื้นที่,16.3407332,102.8033947,OpenStreetMap / Overpass API
ขอนแก่น,Khon Kaen,แชมป์,,สถานที่ท่องเที่ยว,2,จุดอัตลักษณ์พื้นที่,16.4331399,102.7520694,OpenStreetMap / Overpass API
ขอนแก่น,Khon Kaen,โจการค้า,,สถานที่ท่องเที่ยว,2,จุดอัตลักษณ์พื้นที่,16.3917425,102.8788083,OpenStreetMap / Overpass API
ขอนแก่น,Khon Kaen,โชคอนันต์,,สถานที่ท่องเที่ยว,2,จุดอัตลักษณ์พื้นที่,16.4397954,102.7928496,OpenStreetMap / Overpass API
ขอนแก่น,Khon Kaen,Indoor Badminton Courts,,สนามกีฬา,2,จุดอัตลักษณ์พื้นที่,16.4131977,102.8296773,OpenStreetMap / Overpass API
ขอนแก่น,Khon Kaen,Khon Kaen Sports School Stadium,,สนามกีฬา,2,จุดอัตลักษณ์พื้นที่,16.4558066,102.9469621,OpenStreetMap / Overpass API
ขอนแก่น,Khon Kaen,กองการกีฬา,,สนามกีฬา,2,จุดอัตลักษณ์พื้นที่,16.476876,102.7412107,Google Maps
ขอนแก่น,Khon Kaen,ศูนย์กีฬาขอนแก่นราม,,สนามกีฬา,2,จุดอัตลักษณ์พื้นที่,16.476583,102.7460289,Google Maps
ขอนแก่น,Khon Kaen,สนามกีฬากลาง มหาวิทยาลัยขอนแก่น,,สนามกีฬา,2,จุดอัตลักษณ์พื้นที่,16.476636,102.8176862,OpenStreetMap / Overpass API
ขอนแก่น,Khon Kaen,สนามกีฬาจังหวัดขอนแก่น,,สนามกีฬา,2,จุดอัตลักษณ์พื้นที่,16.4560875,102.7812732,Google Maps
ขอนแก่น,Khon Kaen,อาคารปิงปอง,Table Tennis,สนามกีฬา,2,จุดอัตลักษณ์พื้นที่,16.4162066,102.8254352,OpenStreetMap / Overpass API
ขอนแก่น,Khon Kaen,Khon Kaen Exotic Pets and Fountain show,,สวนสัตว์,2,จุดอัตลักษณ์พื้นที่,16.4596423,102.7930992,OpenStreetMap / Overpass API
ขอนแก่น,Khon Kaen,SNB English Park,,สวนสาธารณะ,2,จุดอัตลักษณ์พื้นที่,16.4399453,102.8378324,OpenStreetMap / Overpass API
ขอนแก่น,Khon Kaen,SNB Tree Park,,สวนสาธารณะ,2,จุดอัตลักษณ์พื้นที่,16.4387697,102.8377551,OpenStreetMap / Overpass API
ขอนแก่น,Khon Kaen,TKK,,สวนสาธารณะ,2,จุดอัตลักษณ์พื้นที่,16.3489202,102.802056,OpenStreetMap / Overpass API
ขอนแก่น,Khon Kaen,Tambun,,สวนสาธารณะ,2,จุดอัตลักษณ์พื้นที่,16.4392595,102.8374457,OpenStreetMap / Overpass API
ขอนแก่น,Khon Kaen,จงเจริญ หม่าล่า,,สวนสาธารณะ,2,จุดอัตลักษณ์พื้นที่,16.4575253,102.8282944,OpenStreetMap / Overpass API
ขอนแก่น,Khon Kaen,ตลาดไอเดีย,,สวนสาธารณะ,2,จุดอัตลักษณ์พื้นที่,16.4186121,102.8183971,OpenStreetMap / Overpass API
ขอนแก่น,Khon Kaen,ร้านดอกไม้ต้นสน ฟลอริสท์,,สวนสาธารณะ,2,จุดอัตลักษณ์พื้นที่,16.4374538,102.8414306,OpenStreetMap / Overpass API
ขอนแก่น,Khon Kaen,วัดหลวงพ่อกล้วย,,สวนสาธารณะ,2,จุดอัตลักษณ์พื้นที่,16.5413398,102.8323167,OpenStreetMap / Overpass API
ขอนแก่น,Khon Kaen,วัดโนนศิลา,Wat Non Sila,สวนสาธารณะ,2,จุดอัตลักษณ์พื้นที่,16.5369946,102.8285882,OpenStreetMap / Overpass API
ขอนแก่น,Khon Kaen,สนามเด็กเล่น หมู่บ้านราชาซิตี้,,สวนสาธารณะ,2,จุดอัตลักษณ์พื้นที่,16.500896,102.8256713,OpenStreetMap / Overpass API
ขอนแก่น,Khon Kaen,สวน สาธารณะขอนแก่น 200 ปี,,สวนสาธารณะ,2,จุดอัตลักษณ์พื้นที่,16.4342857,102.8453472,Google Maps
ขอนแก่น,Khon Kaen,สวน สาธารณะขอนแก่น 200 ปี,,สวนสาธารณะ,2,จุดอัตลักษณ์พื้นที่,16.4199682,102.8025239,Google Maps
ขอนแก่น,Khon Kaen,สวนกวี,Kavi Garden,สวนสาธารณะ,2,จุดอัตลักษณ์พื้นที่,16.4677383,102.8150346,OpenStreetMap / Overpass API
ขอนแก่น,Khon Kaen,สวนประตูเมือง,Suan Pratu Mueang,สวนสาธารณะ,2,จุดอัตลักษณ์พื้นที่,16.4304432,102.8244347,OpenStreetMap / Overpass API
ขอนแก่น,Khon Kaen,สวนป่าเฉลิมพระเกียรติ,Forest Park Chaloem Phrakiat,สวนสาธารณะ,2,จุดอัตลักษณ์พื้นที่,16.4468594,102.8664546,OpenStreetMap / Overpass API
ขอนแก่น,Khon Kaen,สวนพุทธมณฑล​อีสาน​,Northeastern Buddhist Park,สวนสาธารณะ,2,จุดอัตลักษณ์พื้นที่,16.5115294,102.8696095,OpenStreetMap / Overpass API
ขอนแก่น,Khon Kaen,สวนรัชดานุสรณ์,Ratchadanusorn Park,สวนสาธารณะ,2,จุดอัตลักษณ์พื้นที่,16.4394893,102.8356897,OpenStreetMap / Overpass API
ขอนแก่น,Khon Kaen,สวนรุกขชาติ มข.,,สวนสาธารณะ,2,จุดอัตลักษณ์พื้นที่,16.4777438,102.8243742,OpenStreetMap / Overpass API
ขอนแก่น,Khon Kaen,สวนสาธารณะ บึงแก่นนคร,Bueng Kaen Nakhon Park,สวนสาธารณะ,2,จุดอัตลักษณ์พื้นที่,16.4132327,102.8380662,OpenStreetMap / Overpass API
ขอนแก่น,Khon Kaen,สวนสาธารณะบึงสีฐาน,,สวนสาธารณะ,2,จุดอัตลักษณ์พื้นที่,16.4451971,102.8163521,OpenStreetMap / Overpass API
ขอนแก่น,Khon Kaen,สวนสาธารณะบึงหนองแวงตราชู,,สวนสาธารณะ,2,จุดอัตลักษณ์พื้นที่,16.4586059,102.8290597,OpenStreetMap / Overpass API
ขอนแก่น,Khon Kaen,สวนสาธารณะรัชดานุสรณ์,,สวนสาธารณะ,2,จุดอัตลักษณ์พื้นที่,16.4395837,102.7996217,Google Maps
ขอนแก่น,Khon Kaen,สวนสาธารณะหมู่บ้านราชาซิตี้,,สวนสาธารณะ,2,จุดอัตลักษณ์พื้นที่,16.4974975,102.8284322,OpenStreetMap / Overpass API
ขอนแก่น,Khon Kaen,สวนสุขภาพ บึงทุ่งสร้าง,Thungsang Health Park,สวนสาธารณะ,2,จุดอัตลักษณ์พื้นที่,16.4446296,102.8499991,OpenStreetMap / Overpass API
ขอนแก่น,Khon Kaen,สวนสุขภาพ โรงพยาบาลศรีนครินทร์,,สวนสาธารณะ,2,จุดอัตลักษณ์พื้นที่,16.4694347,102.8311927,OpenStreetMap / Overpass API
ขอนแก่น,Khon Kaen,หนองสระพัง,Nong Sa Phang,สวนสาธารณะ,2,จุดอัตลักษณ์พื้นที่,16.4324897,102.8331045,OpenStreetMap / Overpass API
ขอนแก่น,Khon Kaen,หอศิลป์,,สวนสาธารณะ,2,จุดอัตลักษณ์พื้นที่,16.4189166,102.8183414,OpenStreetMap / Overpass API
ขอนแก่น,Khon Kaen,เวทีกลาง,,สวนสาธารณะ,2,จุดอัตลักษณ์พื้นที่,16.418516,102.8186321,OpenStreetMap / Overpass API
ขอนแก่น,Khon Kaen,ก๋วยเตี๋ยวเรืออนุสาวรีย์ชัยฯ 2513 ขอนแก่น,,อนุสาวรีย์/อนุสรณ์,2,จุดอัตลักษณ์พื้นที่,16.4250438,102.8039882,Google Maps
ขอนแก่น,Khon Kaen,พระบรมรูปพระบรมราชชนก-ชนนี,Monument of Prince Songkhla Nagarind and Princess Mother,อนุสาวรีย์/อนุสรณ์,2,จุดอัตลักษณ์พื้นที่,16.4682299,102.8304282,OpenStreetMap / Overpass API
ขอนแก่น,Khon Kaen,พระราชานุสาวรีย์ พระจอมเกล้าฯ,King Rama 4 Monument,อนุสาวรีย์/อนุสรณ์,2,จุดอัตลักษณ์พื้นที่,16.4741208,102.8225895,OpenStreetMap / Overpass API
ขอนแก่น,Khon Kaen,อนุสาวรีย์ จอมพลสฤษดิ์ ธนรัชต์,Marshal Sarit Thanarat Monument,อนุสาวรีย์/อนุสรณ์,2,จุดอัตลักษณ์พื้นที่,16.4390506,102.8355201,OpenStreetMap / Overpass API
ขอนแก่น,Khon Kaen,อนุสาวรีย์ พระนครศรีบริรักษ์,Phra Nakhon Si Borirak Memorial,อนุสาวรีย์/อนุสรณ์,2,จุดอัตลักษณ์พื้นที่,16.4199806,102.8373432,OpenStreetMap / Overpass API
ขอนแก่น,Khon Kaen,อนุสาวรีย์ พระนครศรีบริรักษ์,,อนุสาวรีย์/อนุสรณ์,2,จุดอัตลักษณ์พื้นที่,16.4311525,102.757145,Google Maps
ขอนแก่น,Khon Kaen,อนุสาวรีย์ชัยประชาธิปไตยขอนแก่น,,อนุสาวรีย์/อนุสรณ์,2,จุดอัตลักษณ์พื้นที่,16.4490534,102.8288532,Google Maps
ขอนแก่น,Khon Kaen,อนุสาวรีย์ชัยประชาธิปไตยขอนแก่น,,อนุสาวรีย์/อนุสรณ์,2,จุดอัตลักษณ์พื้นที่,16.4282479,102.8198054,Google Maps
ขอนแก่น,Khon Kaen,อนุสาวรีย์ชัยประชาธิปไตยขอนแก่น,,อนุสาวรีย์/อนุสรณ์,2,จุดอัตลักษณ์พื้นที่,16.4309171,102.8193584,Google Maps
ขอนแก่น,Khon Kaen,อนุสาวรีย์ประชาธิปไตย,Democracy Monument,อนุสาวรีย์/อนุสรณ์,2,จุดอัตลักษณ์พื้นที่,16.4311323,102.829227,OpenStreetMap / Overpass API
ขอนแก่น,Khon Kaen,Class Clinic - คลาสคลินิก สาขากังสดาล,,คลินิก,3,สิ่งอำนวยความสะดวก,16.4582744,102.7918988,Google Maps
ขอนแก่น,Khon Kaen,Sera Clinic ขอนแก่น,,คลินิก,3,สิ่งอำนวยความสะดวก,16.4451142,102.8299326,OpenStreetMap / Overpass API
ขอนแก่น,Khon Kaen,Sosoul Clinic,,คลินิก,3,สิ่งอำนวยความสะดวก,16.4591707,102.8242142,OpenStreetMap / Overpass API
ขอนแก่น,Khon Kaen,ขอนแก่นจักษุคลินิก,Khon Kaen Eye Clinic,คลินิก,3,สิ่งอำนวยความสะดวก,16.4304807,102.835789,OpenStreetMap / Overpass API
ขอนแก่น,Khon Kaen,ขอนแก่นรวมแพทย์,,คลินิก,3,สิ่งอำนวยความสะดวก,16.4306273,102.8375782,OpenStreetMap / Overpass API
ขอนแก่น,Khon Kaen,ขอนแก่นแล็บ,Khon Kaen Lab,คลินิก,3,สิ่งอำนวยความสะดวก,16.4369383,102.8364549,OpenStreetMap / Overpass API
ขอนแก่น,Khon Kaen,คลินิกตา หมอวีระศักดิ์,Doctor Veerasak Eye Clinic,คลินิก,3,สิ่งอำนวยความสะดวก,16.4330083,102.837802,OpenStreetMap / Overpass API
ขอนแก่น,Khon Kaen,คลินิกตาหมอธรรศ,Thuss Eye Doctor,คลินิก,3,สิ่งอำนวยความสะดวก,16.4237234,102.8370295,OpenStreetMap / Overpass API
ขอนแก่น,Khon Kaen,คลินิกทันตกรรมอินเฮ้าส์ Inhouse Dental Clinic ทำฟัน จัดฟัน รากเทียม ขอนแก่น,,คลินิก,3,สิ่งอำนวยความสะดวก,16.4422246,102.824096,Google Maps
ขอนแก่น,Khon Kaen,คลินิกทันตกรรมอินเฮ้าส์ Inhouse Dental Clinic ทำฟัน จัดฟัน รากเทียม ขอนแก่น,,คลินิก,3,สิ่งอำนวยความสะดวก,16.433612,102.7728711,Google Maps
ขอนแก่น,Khon Kaen,คลินิกนายแพทย์ชินวัฒน์,Shinnawat Clinic,คลินิก,3,สิ่งอำนวยความสะดวก,16.429862,102.8389379,OpenStreetMap / Overpass API
ขอนแก่น,Khon Kaen,คลินิกนายแพทย์เสริมศักดิ์,Doctor Sermsak,คลินิก,3,สิ่งอำนวยความสะดวก,16.420587,102.8375672,OpenStreetMap / Overpass API
ขอนแก่น,Khon Kaen,คลินิกฟอกไต ประชาสโมสร,Pracha Samoson Clinic,คลินิก,3,สิ่งอำนวยความสะดวก,16.4360029,102.8496748,OpenStreetMap / Overpass API
ขอนแก่น,Khon Kaen,คลินิกศัลยกรรมตกแต่ง น.พ. บวรศิลป์,Dr. Borwornsilp Cosmetic Surgery Clinic,คลินิก,3,สิ่งอำนวยความสะดวก,16.4334059,102.841352,OpenStreetMap / Overpass API
ขอนแก่น,Khon Kaen,คลินิกหมอชนัตถ์,Doctor Chanat,คลินิก,3,สิ่งอำนวยความสะดวก,16.4291275,102.8434628,OpenStreetMap / Overpass API
ขอนแก่น,Khon Kaen,คลินิกหมอวิสูตร วิภา,Dr.Wisoot-Wipa clinic,คลินิก,3,สิ่งอำนวยความสะดวก,16.4244533,102.8333455,OpenStreetMap / Overpass API
ขอนแก่น,Khon Kaen,คลินิกหมอสุกิจ,Doctor Sukij,คลินิก,3,สิ่งอำนวยความสะดวก,16.4300935,102.837271,OpenStreetMap / Overpass API
ขอนแก่น,Khon Kaen,คลินิกหมอสุรางรัตน์,Doctor Surangrat Clinic,คลินิก,3,สิ่งอำนวยความสะดวก,16.4258577,102.8396392,OpenStreetMap / Overpass API
ขอนแก่น,Khon Kaen,คลินิกหมอเกรียงศักดิ์,Doctor Kriangsak Clinic,คลินิก,3,สิ่งอำนวยความสะดวก,16.4380058,102.8401153,OpenStreetMap / Overpass API
ขอนแก่น,Khon Kaen,คลินิกเด็ก นพ. สุรศักดิ์ ตั้งศรีเสรี,Doctor Surasak Tangsriseri Clinic,คลินิก,3,สิ่งอำนวยความสะดวก,16.4375037,102.8344874,OpenStreetMap / Overpass API
ขอนแก่น,Khon Kaen,คลินิกเด็ก นายแพทย์มนัส,Doctor Manas Clinic,คลินิก,3,สิ่งอำนวยความสะดวก,16.4368858,102.8347156,OpenStreetMap / Overpass API
ขอนแก่น,Khon Kaen,คลินิกเด็ก หมออำนวยพร,Dr. Amnuayporn Pediatric Clinic,คลินิก,3,สิ่งอำนวยความสะดวก,16.4306936,102.8357494,OpenStreetMap / Overpass API
ขอนแก่น,Khon Kaen,คลินิกเด็กและภูมิแพ้ขอนแก่น,Pediatric and Allergy Clinic,คลินิก,3,สิ่งอำนวยความสะดวก,16.4338628,102.837356,OpenStreetMap / Overpass API
ขอนแก่น,Khon Kaen,คลินิกเทคนิคการแพทย์และกายภาพบำบัด,KKU Medical Technology and Physical Therapy Clinic,คลินิก,3,สิ่งอำนวยความสะดวก,16.434083,102.8365155,OpenStreetMap / Overpass API
ขอนแก่น,Khon Kaen,คลินิกเวชกรรมหน้าเมือง,Na Muang Medical Clinic,คลินิก,3,สิ่งอำนวยความสะดวก,16.4335045,102.8345656,OpenStreetMap / Overpass API
ขอนแก่น,Khon Kaen,คลินิกแพทย์เซนต์ปอลส์,St. Pauls Clinic,คลินิก,3,สิ่งอำนวยความสะดวก,16.4366836,102.8334372,OpenStreetMap / Overpass API
ขอนแก่น,Khon Kaen,คลินิกแว่นตาไฮน์นอฟติก ขอนแก่น,,คลินิก,3,สิ่งอำนวยความสะดวก,16.439524,102.7944331,Google Maps
ขอนแก่น,Khon Kaen,คลินิกโรคกระดูกและข้อ หมอสุรชัย,Doctor Surachai Orthopedics,คลินิก,3,สิ่งอำนวยความสะดวก,16.4585443,102.8314179,OpenStreetMap / Overpass API
ขอนแก่น,Khon Kaen,คลินิคหมอวิทยา,,คลินิก,3,สิ่งอำนวยความสะดวก,16.4428396,102.7725798,Google Maps
ขอนแก่น,Khon Kaen,คลีนิกหมอเมธี อ่อนจันทร์,Doctor Matee Onchan,คลินิก,3,สิ่งอำนวยความสะดวก,16.4132591,102.8340037,OpenStreetMap / Overpass API
ขอนแก่น,Khon Kaen,ธีรยาคลินิก,Theeraya Clinic,คลินิก,3,สิ่งอำนวยความสะดวก,16.437809,102.8362591,OpenStreetMap / Overpass API
ขอนแก่น,Khon Kaen,ธีระวัฒน์ ไมโครคลีนิค,Theerawat Microclinic,คลินิก,3,สิ่งอำนวยความสะดวก,16.4300476,102.8374902,OpenStreetMap / Overpass API
ขอนแก่น,Khon Kaen,นายแพทย์ กนก,Doctor Kanok,คลินิก,3,สิ่งอำนวยความสะดวก,16.4384812,102.8355194,OpenStreetMap / Overpass API
ขอนแก่น,Khon Kaen,บิ๊กสไมล,,คลินิก,3,สิ่งอำนวยความสะดวก,16.4387957,102.8299084,OpenStreetMap / Overpass API
ขอนแก่น,Khon Kaen,ภาคบริการโลหิตแห่งชาติที่ 6 จังหวัดขอนแก่น,Regional Blood Centre VI Khonkaen,คลินิก,3,สิ่งอำนวยความสะดวก,16.5493418,102.8271309,OpenStreetMap / Overpass API
ขอนแก่น,Khon Kaen,ภูวรินทร์คลินิกเวชกรรม (คลินิกรักษาสิว รักษาฝ้า),,คลินิก,3,สิ่งอำนวยความสะดวก,16.4630644,102.7914826,Google Maps
ขอนแก่น,Khon Kaen,รอบเมืองรวมแพทย์,Robmuang Ruam Phaet,คลินิก,3,สิ่งอำนวยความสะดวก,16.4252774,102.8395253,OpenStreetMap / Overpass API
ขอนแก่น,Khon Kaen,ศูนย์เจตบุตร,Getabutra Art Center,คลินิก,3,สิ่งอำนวยความสะดวก,16.4361222,102.8388666,OpenStreetMap / Overpass API
ขอนแก่น,Khon Kaen,สุชาติการแพทย์,Suchart Clinic,คลินิก,3,สิ่งอำนวยความสะดวก,16.4292728,102.8425321,OpenStreetMap / Overpass API
ขอนแก่น,Khon Kaen,หมอรัตนาและหมอพัชรี,Doctor Rattana & Doctor Phatchari,คลินิก,3,สิ่งอำนวยความสะดวก,16.4233438,102.8330211,OpenStreetMap / Overpass API
ขอนแก่น,Khon Kaen,หมอวิฑูรย์,Dr. Withun,คลินิก,3,สิ่งอำนวยความสะดวก,16.4370722,102.8301962,OpenStreetMap / Overpass API
ขอนแก่น,Khon Kaen,อมรคลินิกเวชกรรม,Amon Medical Clinic,คลินิก,3,สิ่งอำนวยความสะดวก,16.4385429,102.8352163,OpenStreetMap / Overpass API
ขอนแก่น,Khon Kaen,เอสเค คลินิกเวชกรรม,SK Clinic,คลินิก,3,สิ่งอำนวยความสะดวก,16.4363141,102.830501,OpenStreetMap / Overpass API
ขอนแก่น,Khon Kaen,โรงพยาบาลส่งเสริมสุขภาพตำบล,Subdistrict Health Promoting Hospital,คลินิก,3,สิ่งอำนวยความสะดวก,16.373818,102.7498536,OpenStreetMap / Overpass API
ขอนแก่น,Khon Kaen,โรงพยาบาลส่งเสริมสุขภาพตำบล บ้านซำจาน,Ban Sam Chan Subdistrict Health Promoting Hospital,คลินิก,3,สิ่งอำนวยความสะดวก,16.6044584,102.7949883,OpenStreetMap / Overpass API
ขอนแก่น,Khon Kaen,โรงพยาบาลส่งเสริมสุขภาพตำบล บ้านหนองหญ้าแพรก,Ban Nong Ya Phraek Subdistrict Health Promoting Hospital,คลินิก,3,สิ่งอำนวยความสะดวก,16.3208191,102.8640456,OpenStreetMap / Overpass API
ขอนแก่น,Khon Kaen,โรงพยาบาลส่งเสริมสุขภาพตำบล บ้านหว้า,Ban Wa Subdistrict Health Promoting Hospital,คลินิก,3,สิ่งอำนวยความสะดวก,16.386034,102.7067815,OpenStreetMap / Overpass API
ขอนแก่น,Khon Kaen,โรงพยาบาลส่งเสริมสุขภาพตำบล บ้านเป็ด,Ban Pet Subdistrict Health Promoting Hospital,คลินิก,3,สิ่งอำนวยความสะดวก,16.4318367,102.7550625,OpenStreetMap / Overpass API
ขอนแก่น,Khon Kaen,โรงพยาบาลส่งเสริมสุขภาพตำบล บ้านโนนรัง,Ban Non Rang Subdistrict Health Promoting Hospital,คลินิก,3,สิ่งอำนวยความสะดวก,16.5441119,102.6863519,OpenStreetMap / Overpass API
ขอนแก่น,Khon Kaen,โรงพยาบาลส่งเสริมสุขภาพตำบล พระลับ,Phra Lap Subdistrict Health Promoting Hospital,คลินิก,3,สิ่งอำนวยความสะดวก,16.4306003,102.8885105,OpenStreetMap / Overpass API
ขอนแก่น,Khon Kaen,โรงพยาบาลส่งเสริมสุขภาพตำบล สำราญ,Samran Subdistrict Health Promoting Hospital,คลินิก,3,สิ่งอำนวยความสะดวก,16.536856,102.8297654,OpenStreetMap / Overpass API
ขอนแก่น,Khon Kaen,โรงพยาบาลส่งเสริมสุขภาพตำบล หนองบัวดีหมี,Nong Bua Di-mi Subdistrict Health Promoting Hospital,คลินิก,3,สิ่งอำนวยความสะดวก,16.322386,102.7949312,OpenStreetMap / Overpass API
ขอนแก่น,Khon Kaen,โรงพยาบาลส่งเสริมสุขภาพตำบล โนนท่อน,Non Thon Subdistrict Health Promoting Hospital,คลินิก,3,สิ่งอำนวยความสะดวก,16.5797946,102.8466383,OpenStreetMap / Overpass API
ขอนแก่น,Khon Kaen,Central Plaza Khon Kaen,Central Plaza Khon Kaen,ซูเปอร์มาร์เก็ต,3,สิ่งอำนวยความสะดวก,16.4328217,102.8254107,OpenStreetMap / Overpass API
ขอนแก่น,Khon Kaen,Night market,Night market,ซูเปอร์มาร์เก็ต,3,สิ่งอำนวยความสะดวก,16.4274132,102.8694126,OpenStreetMap / Overpass API
ขอนแก่น,Khon Kaen,RICH Store.,,ซูเปอร์มาร์เก็ต,3,สิ่งอำนวยความสะดวก,16.4329305,102.8342065,OpenStreetMap / Overpass API
ขอนแก่น,Khon Kaen,Tops,Tops,ซูเปอร์มาร์เก็ต,3,สิ่งอำนวยความสะดวก,16.4323099,102.824635,OpenStreetMap / Overpass API
ขอนแก่น,Khon Kaen,Tops,Tops,ซูเปอร์มาร์เก็ต,3,สิ่งอำนวยความสะดวก,16.4299546,102.8316507,OpenStreetMap / Overpass API
ขอนแก่น,Khon Kaen,iYARA Fishing SHOP,,ซูเปอร์มาร์เก็ต,3,สิ่งอำนวยความสะดวก,16.4054709,102.7794525,OpenStreetMap / Overpass API
ขอนแก่น,Khon Kaen,ตลาดต้นตาล Tontann market,,ซูเปอร์มาร์เก็ต,3,สิ่งอำนวยความสะดวก,16.4187606,102.8183393,OpenStreetMap / Overpass API
ขอนแก่น,Khon Kaen,หมูซิ่งบ้านตูม,,ซูเปอร์มาร์เก็ต,3,สิ่งอำนวยความสะดวก,16.403134,102.8384876,OpenStreetMap / Overpass API
ขอนแก่น,Khon Kaen,เซ็นโทซ่ามาร์เก็ต,Sentosa Market,ซูเปอร์มาร์เก็ต,3,สิ่งอำนวยความสะดวก,16.4277834,102.8607816,OpenStreetMap / Overpass API
ขอนแก่น,Khon Kaen,เทสโก้โลตัส,Tesco Lotus Extra,ซูเปอร์มาร์เก็ต,3,สิ่งอำนวยความสะดวก,16.4919058,102.8307338,OpenStreetMap / Overpass API
ขอนแก่น,Khon Kaen,แตงโมมาร์ท,,ซูเปอร์มาร์เก็ต,3,สิ่งอำนวยความสะดวก,16.3814408,102.8451465,OpenStreetMap / Overpass API
ขอนแก่น,Khon Kaen,Market,Market,ตลาด,3,สิ่งอำนวยความสะดวก,16.4290546,102.8344624,OpenStreetMap / Overpass API
ขอนแก่น,Khon Kaen,Night market,,ตลาด,3,สิ่งอำนวยความสะดวก,16.418646,102.8366984,OpenStreetMap / Overpass API
ขอนแก่น,Khon Kaen,Samran Market 1,,ตลาด,3,สิ่งอำนวยความสะดวก,16.5361766,102.8298296,OpenStreetMap / Overpass API
ขอนแก่น,Khon Kaen,Samran Market 2,,ตลาด,3,สิ่งอำนวยความสะดวก,16.5352917,102.8296098,OpenStreetMap / Overpass API
ขอนแก่น,Khon Kaen,กังสดาลไนท์,,ตลาด,3,สิ่งอำนวยความสะดวก,16.4582778,102.6772352,Google Maps
ขอนแก่น,Khon Kaen,ตลาด อ. จิระ,O Chira Market,ตลาด,3,สิ่งอำนวยความสะดวก,16.4379976,102.8319876,OpenStreetMap / Overpass API
ขอนแก่น,Khon Kaen,ตลาดกังไนท์,,ตลาด,3,สิ่งอำนวยความสะดวก,16.4581389,102.7858122,Google Maps
ขอนแก่น,Khon Kaen,ตลาดกังไนท์,,ตลาด,3,สิ่งอำนวยความสะดวก,16.4469721,102.6749339,Google Maps
ขอนแก่น,Khon Kaen,ตลาดจอมพล,Chom Phon Market,ตลาด,3,สิ่งอำนวยความสะดวก,16.4488848,102.842864,OpenStreetMap / Overpass API
ขอนแก่น,Khon Kaen,ตลาดตองแปด,Tong Pad Market,ตลาด,3,สิ่งอำนวยความสะดวก,16.4264654,102.8300583,OpenStreetMap / Overpass API
ขอนแก่น,Khon Kaen,ตลาดต้นไม้,Talat Tonmai,ตลาด,3,สิ่งอำนวยความสะดวก,16.4555611,102.8322575,OpenStreetMap / Overpass API
ขอนแก่น,Khon Kaen,ตลาดนัดต้นตาล Plaza,Ton Tann Market,ตลาด,3,สิ่งอำนวยความสะดวก,16.4176544,102.8182724,OpenStreetMap / Overpass API
ขอนแก่น,Khon Kaen,ตลาดนัดเปิดท้าย มข.,,ตลาด,3,สิ่งอำนวยความสะดวก,16.4479421,102.8276667,Google Maps
ขอนแก่น,Khon Kaen,ตลาดนัดเปิดท้าย มข.,,ตลาด,3,สิ่งอำนวยความสะดวก,16.4479411,102.8070671,Google Maps
ขอนแก่น,Khon Kaen,ตลาดนัดเปิดท้าย มข.,,ตลาด,3,สิ่งอำนวยความสะดวก,16.4071115,102.8276667,Google Maps
ขอนแก่น,Khon Kaen,ตลาดนัดเปิดท้าย มข.,,ตลาด,3,สิ่งอำนวยความสะดวก,16.4082458,102.7452651,Google Maps
ขอนแก่น,Khon Kaen,ตลาดบางลำภู,,ตลาด,3,สิ่งอำนวยความสะดวก,16.4294793,102.6903864,Google Maps
ขอนแก่น,Khon Kaen,ตลาดบ้านกอก,Talat Ban Kok,ตลาด,3,สิ่งอำนวยความสะดวก,16.4217371,102.8058239,OpenStreetMap / Overpass API
ขอนแก่น,Khon Kaen,ตลาดบ้านดอนหญ้านาง,Ban Don Ya Nang Market,ตลาด,3,สิ่งอำนวยความสะดวก,16.454105,102.8426902,OpenStreetMap / Overpass API
ขอนแก่น,Khon Kaen,ตลาดประตูน้ำ,Talat Pratunam,ตลาด,3,สิ่งอำนวยความสะดวก,16.4028639,102.8120435,OpenStreetMap / Overpass API
ขอนแก่น,Khon Kaen,ตลาดมอดินแดง,Modindaeng Market,ตลาด,3,สิ่งอำนวยความสะดวก,16.4795042,102.8229724,OpenStreetMap / Overpass API
ขอนแก่น,Khon Kaen,ตลาดรถไฟ,Talat Rotfai,ตลาด,3,สิ่งอำนวยความสะดวก,16.4275457,102.8270122,OpenStreetMap / Overpass API
ขอนแก่น,Khon Kaen,ตลาดศรีเมืองทอง,Talat Simueang Thong,ตลาด,3,สิ่งอำนวยความสะดวก,16.414774,102.8201998,OpenStreetMap / Overpass API
ขอนแก่น,Khon Kaen,ตลาดสดเทศบาล1,,ตลาด,3,สิ่งอำนวยความสะดวก,16.4446183,102.8276667,Google Maps
ขอนแก่น,Khon Kaen,ตลาดสดเทศบาล1,,ตลาด,3,สิ่งอำนวยความสะดวก,16.4260473,102.7625292,Google Maps
ขอนแก่น,Khon Kaen,ตลาดสดเทศบาล3 (โบ๊เบ๊),,ตลาด,3,สิ่งอำนวยความสะดวก,16.4091068,102.7816204,Google Maps
ขอนแก่น,Khon Kaen,ตลาดสดเทศบาล3 (โบ๊เบ๊),,ตลาด,3,สิ่งอำนวยความสะดวก,16.4271458,102.6906446,Google Maps
ขอนแก่น,Khon Kaen,ตลาดสามแยกโนนทัน,Samyak Non Than Market,ตลาด,3,สิ่งอำนวยความสะดวก,16.4166212,102.8494616,OpenStreetMap / Overpass API
ขอนแก่น,Khon Kaen,ตลาดหนองไผ่ล้อม,Nong Phai Lom Market,ตลาด,3,สิ่งอำนวยความสะดวก,16.4267389,102.831706,OpenStreetMap / Overpass API
ขอนแก่น,Khon Kaen,ตลาดเย็นหนองใหญ่,,ตลาด,3,สิ่งอำนวยความสะดวก,16.4275806,102.8685557,OpenStreetMap / Overpass API
ขอนแก่น,Khon Kaen,ตลาดโนนทัน,Nonthun Marketplace,ตลาด,3,สิ่งอำนวยความสะดวก,16.4203609,102.8498728,OpenStreetMap / Overpass API
ขอนแก่น,Khon Kaen,ถนนคนเดิน,Walking Street,ตลาด,3,สิ่งอำนวยความสะดวก,16.4403525,102.8357787,OpenStreetMap / Overpass API
ขอนแก่น,Khon Kaen,ศูนย์ค้าส่ง อู้ฟู่ ขอนแก่น,Wufoo Wholesale Market Khon Kaen,ตลาด,3,สิ่งอำนวยความสะดวก,16.4104383,102.8165567,OpenStreetMap / Overpass API
ขอนแก่น,Khon Kaen,ธนาคารกรุงไทย,Krung Thai Bank,ตู้ATM,3,สิ่งอำนวยความสะดวก,16.4865734,102.8159871,OpenStreetMap / Overpass API
ขอนแก่น,Khon Kaen,ธนาคารกสิกรไทย,Kasikornbank,ตู้ATM,3,สิ่งอำนวยความสะดวก,16.4865483,102.8160026,OpenStreetMap / Overpass API
ขอนแก่น,Khon Kaen,ธนาคารออมสิน,Government Savings Bank,ตู้ATM,3,สิ่งอำนวยความสะดวก,16.486565,102.8159916,OpenStreetMap / Overpass API
ขอนแก่น,Khon Kaen,ธนาคารไทยพาณิชย์,Siam Commercial Bank,ตู้ATM,3,สิ่งอำนวยความสะดวก,16.4465722,102.8152343,OpenStreetMap / Overpass API
ขอนแก่น,Khon Kaen,ธนาคารไทยพาณิชย์,Siam Commercial Bank,ตู้ATM,3,สิ่งอำนวยความสะดวก,16.4860546,102.8162863,OpenStreetMap / Overpass API
ขอนแก่น,Khon Kaen,ธนาคารไทยพาณิชย์,Siam Commercial Bank,ตู้ATM,3,สิ่งอำนวยความสะดวก,16.446402,102.8458321,OpenStreetMap / Overpass API
ขอนแก่น,Khon Kaen,BOC,,ธนาคาร,3,สิ่งอำนวยความสะดวก,16.4492218,102.8419001,OpenStreetMap / Overpass API
ขอนแก่น,Khon Kaen,Citibank,Citi,ธนาคาร,3,สิ่งอำนวยความสะดวก,16.4309432,102.8324239,OpenStreetMap / Overpass API
ขอนแก่น,Khon Kaen,ICBC,ICBC,ธนาคาร,3,สิ่งอำนวยความสะดวก,16.4375581,102.8362582,OpenStreetMap / Overpass API
ขอนแก่น,Khon Kaen,UOB,UOB,ธนาคาร,3,สิ่งอำนวยความสะดวก,16.4359817,102.83429,OpenStreetMap / Overpass API
ขอนแก่น,Khon Kaen,UOB,UOB,ธนาคาร,3,สิ่งอำนวยความสะดวก,16.4358233,102.8257955,OpenStreetMap / Overpass API
ขอนแก่น,Khon Kaen,กรุงศรี,Bank of Ayudhya,ธนาคาร,3,สิ่งอำนวยความสะดวก,16.4307677,102.8311357,OpenStreetMap / Overpass API
ขอนแก่น,Khon Kaen,กรุงศรี,Bank of Ayudhya,ธนาคาร,3,สิ่งอำนวยความสะดวก,16.4251874,102.8220006,OpenStreetMap / Overpass API
ขอนแก่น,Khon Kaen,กรุงศรี,Bank of Ayudhya,ธนาคาร,3,สิ่งอำนวยความสะดวก,16.4324379,102.824812,OpenStreetMap / Overpass API
ขอนแก่น,Khon Kaen,กรุงศรี,Bank of Ayudhya,ธนาคาร,3,สิ่งอำนวยความสะดวก,16.4403612,102.8251718,OpenStreetMap / Overpass API
ขอนแก่น,Khon Kaen,กรุงศรี,Bank of Ayudhya,ธนาคาร,3,สิ่งอำนวยความสะดวก,16.4211924,102.8190491,OpenStreetMap / Overpass API
ขอนแก่น,Khon Kaen,กรุงศรี,Bank of Ayudhya,ธนาคาร,3,สิ่งอำนวยความสะดวก,16.4773976,102.8230278,OpenStreetMap / Overpass API
ขอนแก่น,Khon Kaen,กรุงศรี,Bank of Ayudhya,ธนาคาร,3,สิ่งอำนวยความสะดวก,16.4405409,102.8283486,OpenStreetMap / Overpass API
ขอนแก่น,Khon Kaen,ซีไอเอ็มบี ไทย,CIMB Thai,ธนาคาร,3,สิ่งอำนวยความสะดวก,16.4307883,102.8316084,OpenStreetMap / Overpass API
ขอนแก่น,Khon Kaen,ธนาคารกรุงเทพ,Bangkok Bank,ธนาคาร,3,สิ่งอำนวยความสะดวก,16.4197423,102.8326214,OpenStreetMap / Overpass API
ขอนแก่น,Khon Kaen,ธนาคารกรุงเทพ,Bangkok Bank,ธนาคาร,3,สิ่งอำนวยความสะดวก,16.4306146,102.8323755,OpenStreetMap / Overpass API
ขอนแก่น,Khon Kaen,ธนาคารกรุงเทพ,Bangkok Bank,ธนาคาร,3,สิ่งอำนวยความสะดวก,16.4392288,102.8297584,OpenStreetMap / Overpass API
ขอนแก่น,Khon Kaen,ธนาคารกรุงเทพ,Bangkok Bank,ธนาคาร,3,สิ่งอำนวยความสะดวก,16.43246,102.824669,OpenStreetMap / Overpass API
ขอนแก่น,Khon Kaen,ธนาคารกรุงเทพ,Bangkok Bank,ธนาคาร,3,สิ่งอำนวยความสะดวก,16.4679329,102.8300857,OpenStreetMap / Overpass API
ขอนแก่น,Khon Kaen,ธนาคารกรุงไทย,Krung Thai Bank,ธนาคาร,3,สิ่งอำนวยความสะดวก,16.4002132,102.8174134,OpenStreetMap / Overpass API
ขอนแก่น,Khon Kaen,ธนาคารกรุงไทย,Krung Thai Bank,ธนาคาร,3,สิ่งอำนวยความสะดวก,16.4307311,102.8318365,OpenStreetMap / Overpass API
ขอนแก่น,Khon Kaen,ธนาคารกรุงไทย,Krung Thai Bank,ธนาคาร,3,สิ่งอำนวยความสะดวก,16.4303168,102.8369954,OpenStreetMap / Overpass API
ขอนแก่น,Khon Kaen,ธนาคารกรุงไทย,Krung Thai Bank,ธนาคาร,3,สิ่งอำนวยความสะดวก,16.4286297,102.8576973,OpenStreetMap / Overpass API
ขอนแก่น,Khon Kaen,ธนาคารกรุงไทย,Krung Thai Bank,ธนาคาร,3,สิ่งอำนวยความสะดวก,16.4324217,102.8249554,OpenStreetMap / Overpass API
ขอนแก่น,Khon Kaen,ธนาคารกรุงไทย,Krung Thai Bank,ธนาคาร,3,สิ่งอำนวยความสะดวก,16.4401805,102.8263011,OpenStreetMap / Overpass API
ขอนแก่น,Khon Kaen,ธนาคารกรุงไทย,Krung Thai Bank,ธนาคาร,3,สิ่งอำนวยความสะดวก,16.4774071,102.822912,OpenStreetMap / Overpass API
ขอนแก่น,Khon Kaen,ธนาคารกรุงไทย,Krung Thai Bank,ธนาคาร,3,สิ่งอำนวยความสะดวก,16.4409686,102.8366332,OpenStreetMap / Overpass API
ขอนแก่น,Khon Kaen,ธนาคารกรุงไทย,Krung Thai Bank,ธนาคาร,3,สิ่งอำนวยความสะดวก,16.4214558,102.8154953,OpenStreetMap / Overpass API
ขอนแก่น,Khon Kaen,ธนาคารกรุงไทย,Krung Thai Bank,ธนาคาร,3,สิ่งอำนวยความสะดวก,16.4652824,102.8324411,OpenStreetMap / Overpass API
ขอนแก่น,Khon Kaen,ธนาคารกรุงไทย,Krung Thai Bank,ธนาคาร,3,สิ่งอำนวยความสะดวก,16.4224981,102.8349694,OpenStreetMap / Overpass API
ขอนแก่น,Khon Kaen,ธนาคารกรุงไทย​โลตัส,,ธนาคาร,3,สิ่งอำนวยความสะดวก,16.4005997,102.8150595,OpenStreetMap / Overpass API
ขอนแก่น,Khon Kaen,ธนาคารกสิกรไทย,Kasikornbank,ธนาคาร,3,สิ่งอำนวยความสะดวก,16.4285504,102.8335989,OpenStreetMap / Overpass API
ขอนแก่น,Khon Kaen,ธนาคารกสิกรไทย,Kasikornbank,ธนาคาร,3,สิ่งอำนวยความสะดวก,16.4008686,102.815838,OpenStreetMap / Overpass API
ขอนแก่น,Khon Kaen,ธนาคารกสิกรไทย,Kasikornbank,ธนาคาร,3,สิ่งอำนวยความสะดวก,16.4252257,102.8195783,OpenStreetMap / Overpass API
ขอนแก่น,Khon Kaen,ธนาคารกสิกรไทย,Kasikornbank,ธนาคาร,3,สิ่งอำนวยความสะดวก,16.4200037,102.8206941,OpenStreetMap / Overpass API
ขอนแก่น,Khon Kaen,ธนาคารกสิกรไทย,Kasikornbank,ธนาคาร,3,สิ่งอำนวยความสะดวก,16.4391851,102.8302185,OpenStreetMap / Overpass API
ขอนแก่น,Khon Kaen,ธนาคารกสิกรไทย,Kasikornbank,ธนาคาร,3,สิ่งอำนวยความสะดวก,16.4285741,102.8496612,OpenStreetMap / Overpass API
ขอนแก่น,Khon Kaen,ธนาคารกสิกรไทย,Kasikornbank,ธนาคาร,3,สิ่งอำนวยความสะดวก,16.4324593,102.824813,OpenStreetMap / Overpass API
ขอนแก่น,Khon Kaen,ธนาคารกสิกรไทย,Kasikornbank,ธนาคาร,3,สิ่งอำนวยความสะดวก,16.447815,102.8409352,OpenStreetMap / Overpass API
ขอนแก่น,Khon Kaen,ธนาคารทหารไทย,TMBThanachart Bank,ธนาคาร,3,สิ่งอำนวยความสะดวก,16.4202425,102.8198375,OpenStreetMap / Overpass API
ขอนแก่น,Khon Kaen,ธนาคารทหารไทย,TMBThanachart Bank,ธนาคาร,3,สิ่งอำนวยความสะดวก,16.4388159,102.831626,OpenStreetMap / Overpass API
ขอนแก่น,Khon Kaen,ธนาคารทหารไทย,TMBThanachart Bank,ธนาคาร,3,สิ่งอำนวยความสะดวก,16.4324377,102.824952,OpenStreetMap / Overpass API
ขอนแก่น,Khon Kaen,ธนาคารทิสโก้้,TISCO Bank,ธนาคาร,3,สิ่งอำนวยความสะดวก,16.3999943,102.8158548,OpenStreetMap / Overpass API
ขอนแก่น,Khon Kaen,ธนาคารธนชาต,Thanachart Bank,ธนาคาร,3,สิ่งอำนวยความสะดวก,16.4289477,102.8338301,OpenStreetMap / Overpass API
ขอนแก่น,Khon Kaen,ธนาคารธนชาต,Thanachart Bank,ธนาคาร,3,สิ่งอำนวยความสะดวก,16.423022,102.8350056,OpenStreetMap / Overpass API
ขอนแก่น,Khon Kaen,ธนาคารธนชาต,Thanachart Bank,ธนาคาร,3,สิ่งอำนวยความสะดวก,16.4073593,102.8170202,OpenStreetMap / Overpass API
ขอนแก่น,Khon Kaen,ธนาคารธนชาต,Thanachart Bank,ธนาคาร,3,สิ่งอำนวยความสะดวก,16.4324383,102.82467,OpenStreetMap / Overpass API
ขอนแก่น,Khon Kaen,ธนาคารนครหลวงไทย,Siam City Bank,ธนาคาร,3,สิ่งอำนวยความสะดวก,16.4308976,102.8299732,OpenStreetMap / Overpass API
ขอนแก่น,Khon Kaen,ธนาคารออมสิน,Government Savings Bank,ธนาคาร,3,สิ่งอำนวยความสะดวก,16.4417557,102.8348314,OpenStreetMap / Overpass API
ขอนแก่น,Khon Kaen,ธนาคารออมสิน,Government Savings Bank,ธนาคาร,3,สิ่งอำนวยความสะดวก,16.4303122,102.833734,OpenStreetMap / Overpass API
ขอนแก่น,Khon Kaen,ธนาคารออมสิน,Government Savings Bank,ธนาคาร,3,สิ่งอำนวยความสะดวก,16.4290743,102.843187,OpenStreetMap / Overpass API
ขอนแก่น,Khon Kaen,ธนาคารออมสิน,Government Savings Bank,ธนาคาร,3,สิ่งอำนวยความสะดวก,16.4324386,102.824528,OpenStreetMap / Overpass API
ขอนแก่น,Khon Kaen,ธนาคารออมสิน,Government Savings Bank,ธนาคาร,3,สิ่งอำนวยความสะดวก,16.4402875,102.8256882,OpenStreetMap / Overpass API
ขอนแก่น,Khon Kaen,ธนาคารออมสิน,Government Savings Bank,ธนาคาร,3,สิ่งอำนวยความสะดวก,16.4774612,102.8228069,OpenStreetMap / Overpass API
ขอนแก่น,Khon Kaen,ธนาคารอาคารสงเคราะห์,GH Bank,ธนาคาร,3,สิ่งอำนวยความสะดวก,16.4297532,102.8396199,OpenStreetMap / Overpass API
ขอนแก่น,Khon Kaen,ธนาคารอิสลามแห่งประเทศไทย,Islamic Bank of Thailand,ธนาคาร,3,สิ่งอำนวยความสะดวก,16.4349174,102.836237,OpenStreetMap / Overpass API
ขอนแก่น,Khon Kaen,ธนาคารเพื่อการเกษตรและสหกรณ์การเกษตร,Bank for Agriculture and Agricultural Co-operatives,ธนาคาร,3,สิ่งอำนวยความสะดวก,16.4257702,102.8313156,OpenStreetMap / Overpass API
ขอนแก่น,Khon Kaen,ธนาคารเพื่อการเกษตรและสหกรณ์การเกษตร ธ.ก.ส.,Bank for Agriculture and Agricultural Cooperatives (BAAC),ธนาคาร,3,สิ่งอำนวยความสะดวก,16.4265342,102.8750727,OpenStreetMap / Overpass API
ขอนแก่น,Khon Kaen,ธนาคารแห่งประเทศไทย,Bank of Thailand,ธนาคาร,3,สิ่งอำนวยความสะดวก,16.4229693,102.8388471,OpenStreetMap / Overpass API
ขอนแก่น,Khon Kaen,ธนาคารแห่งประเทศไทย,Bank of Thailand,ธนาคาร,3,สิ่งอำนวยความสะดวก,16.4215765,102.8386562,OpenStreetMap / Overpass API
ขอนแก่น,Khon Kaen,ธนาคารไทยพาณิชย์,Siam Commercial Bank,ธนาคาร,3,สิ่งอำนวยความสะดวก,16.4242197,102.8333046,OpenStreetMap / Overpass API
ขอนแก่น,Khon Kaen,ธนาคารไทยพาณิชย์,Siam Commercial Bank,ธนาคาร,3,สิ่งอำนวยความสะดวก,16.4248667,102.8194461,OpenStreetMap / Overpass API
ขอนแก่น,Khon Kaen,ธนาคารไทยพาณิชย์,Siam Commercial Bank,ธนาคาร,3,สิ่งอำนวยความสะดวก,16.4302644,102.8373702,OpenStreetMap / Overpass API
ขอนแก่น,Khon Kaen,ธนาคารไทยพาณิชย์,Siam Commercial Bank,ธนาคาร,3,สิ่งอำนวยความสะดวก,16.4008038,102.8170796,OpenStreetMap / Overpass API
ขอนแก่น,Khon Kaen,ธนาคารไทยพาณิชย์,Siam Commercial Bank,ธนาคาร,3,สิ่งอำนวยความสะดวก,16.468625,102.8318343,OpenStreetMap / Overpass API
ขอนแก่น,Khon Kaen,ธนาคารไทยพาณิชย์,Siam Commercial Bank,ธนาคาร,3,สิ่งอำนวยความสะดวก,16.4358388,102.8247803,OpenStreetMap / Overpass API
ขอนแก่น,Khon Kaen,ธนาคารไทยพาณิชย์,Siam Commercial Bank,ธนาคาร,3,สิ่งอำนวยความสะดวก,16.4324374,102.825092,OpenStreetMap / Overpass API
ขอนแก่น,Khon Kaen,ธอส,G H Bank,ธนาคาร,3,สิ่งอำนวยความสะดวก,16.432298,102.8251943,OpenStreetMap / Overpass API
ขอนแก่น,Khon Kaen,อิออน,Aeon,ธนาคาร,3,สิ่งอำนวยความสะดวก,16.4324606,102.824529,OpenStreetMap / Overpass API
ขอนแก่น,Khon Kaen,Bangchak,,ปั๊มน้ำมัน,3,สิ่งอำนวยความสะดวก,16.4882823,102.8884776,OpenStreetMap / Overpass API
ขอนแก่น,Khon Kaen,Caltex,Caltex,ปั๊มน้ำมัน,3,สิ่งอำนวยความสะดวก,16.4270397,102.8761373,OpenStreetMap / Overpass API
ขอนแก่น,Khon Kaen,Caltex,Caltex,ปั๊มน้ำมัน,3,สิ่งอำนวยความสะดวก,16.4406702,102.8182258,OpenStreetMap / Overpass API
ขอนแก่น,Khon Kaen,Caltex,Caltex,ปั๊มน้ำมัน,3,สิ่งอำนวยความสะดวก,16.4504449,102.7596967,OpenStreetMap / Overpass API
ขอนแก่น,Khon Kaen,Caltex,Caltex,ปั๊มน้ำมัน,3,สิ่งอำนวยความสะดวก,16.4219123,102.8343672,OpenStreetMap / Overpass API
ขอนแก่น,Khon Kaen,Caltex,Caltex,ปั๊มน้ำมัน,3,สิ่งอำนวยความสะดวก,16.4630766,102.8325579,OpenStreetMap / Overpass API
ขอนแก่น,Khon Kaen,Caltex Station,Caltex Station,ปั๊มน้ำมัน,3,สิ่งอำนวยความสะดวก,16.3460195,102.8034692,OpenStreetMap / Overpass API
ขอนแก่น,Khon Kaen,Jaidee Green,,ปั๊มน้ำมัน,3,สิ่งอำนวยความสะดวก,16.4380037,102.9285847,OpenStreetMap / Overpass API
ขอนแก่น,Khon Kaen,LPG Station,,ปั๊มน้ำมัน,3,สิ่งอำนวยความสะดวก,16.4489082,102.6965972,OpenStreetMap / Overpass API
ขอนแก่น,Khon Kaen,PT,PT,ปั๊มน้ำมัน,3,สิ่งอำนวยความสะดวก,16.4290554,102.852644,OpenStreetMap / Overpass API
ขอนแก่น,Khon Kaen,PT LPG Station,PT LPG Station,ปั๊มน้ำมัน,3,สิ่งอำนวยความสะดวก,16.3009098,102.788601,OpenStreetMap / Overpass API
ขอนแก่น,Khon Kaen,PTT,PTT,ปั๊มน้ำมัน,3,สิ่งอำนวยความสะดวก,16.4485453,102.8410336,OpenStreetMap / Overpass API
ขอนแก่น,Khon Kaen,PTT,PTT,ปั๊มน้ำมัน,3,สิ่งอำนวยความสะดวก,16.4905527,102.8320679,OpenStreetMap / Overpass API
ขอนแก่น,Khon Kaen,PTT,PTT,ปั๊มน้ำมัน,3,สิ่งอำนวยความสะดวก,16.4362618,102.850672,OpenStreetMap / Overpass API
ขอนแก่น,Khon Kaen,PTT,PTT,ปั๊มน้ำมัน,3,สิ่งอำนวยความสะดวก,16.3904009,102.8265863,OpenStreetMap / Overpass API
ขอนแก่น,Khon Kaen,PTT,PTT,ปั๊มน้ำมัน,3,สิ่งอำนวยความสะดวก,16.4283186,102.8860639,OpenStreetMap / Overpass API
ขอนแก่น,Khon Kaen,PTT,PTT,ปั๊มน้ำมัน,3,สิ่งอำนวยความสะดวก,16.4515047,102.8309007,OpenStreetMap / Overpass API
ขอนแก่น,Khon Kaen,PTT,PTT,ปั๊มน้ำมัน,3,สิ่งอำนวยความสะดวก,16.5296437,102.8299183,OpenStreetMap / Overpass API
ขอนแก่น,Khon Kaen,PTT,PTT,ปั๊มน้ำมัน,3,สิ่งอำนวยความสะดวก,16.4529619,102.8319231,OpenStreetMap / Overpass API
ขอนแก่น,Khon Kaen,PTT,PTT Station,ปั๊มน้ำมัน,3,สิ่งอำนวยความสะดวก,16.3094157,102.7915446,OpenStreetMap / Overpass API
ขอนแก่น,Khon Kaen,PTT,PTT,ปั๊มน้ำมัน,3,สิ่งอำนวยความสะดวก,16.4382092,102.9357385,OpenStreetMap / Overpass API
ขอนแก่น,Khon Kaen,PTT,PTT,ปั๊มน้ำมัน,3,สิ่งอำนวยความสะดวก,16.4360824,102.7590353,OpenStreetMap / Overpass API
ขอนแก่น,Khon Kaen,PTT LPG Station,PTT,ปั๊มน้ำมัน,3,สิ่งอำนวยความสะดวก,16.4494732,102.7580872,OpenStreetMap / Overpass API
ขอนแก่น,Khon Kaen,PTT Station,PTT Station,ปั๊มน้ำมัน,3,สิ่งอำนวยความสะดวก,16.3416473,102.8017246,OpenStreetMap / Overpass API
ขอนแก่น,Khon Kaen,Ptt,,ปั๊มน้ำมัน,3,สิ่งอำนวยความสะดวก,16.4380256,102.787206,OpenStreetMap / Overpass API
ขอนแก่น,Khon Kaen,Self-service petrol station,,ปั๊มน้ำมัน,3,สิ่งอำนวยความสะดวก,16.4011218,102.8377799,OpenStreetMap / Overpass API
ขอนแก่น,Khon Kaen,Shell,Shell Station,ปั๊มน้ำมัน,3,สิ่งอำนวยความสะดวก,16.3022084,102.7888839,OpenStreetMap / Overpass API
ขอนแก่น,Khon Kaen,Shell,Shell,ปั๊มน้ำมัน,3,สิ่งอำนวยความสะดวก,16.4272416,102.8741366,OpenStreetMap / Overpass API
ขอนแก่น,Khon Kaen,Shell,Shell,ปั๊มน้ำมัน,3,สิ่งอำนวยความสะดวก,16.4498993,102.7555508,OpenStreetMap / Overpass API
ขอนแก่น,Khon Kaen,Shell Station,Shell Station,ปั๊มน้ำมัน,3,สิ่งอำนวยความสะดวก,16.3840725,102.8219332,OpenStreetMap / Overpass API
ขอนแก่น,Khon Kaen,Susco,Susco,ปั๊มน้ำมัน,3,สิ่งอำนวยความสะดวก,16.5468531,102.8277023,OpenStreetMap / Overpass API
ขอนแก่น,Khon Kaen,Susco,Susco Station,ปั๊มน้ำมัน,3,สิ่งอำนวยความสะดวก,16.2949794,102.7876646,OpenStreetMap / Overpass API
ขอนแก่น,Khon Kaen,bangchak,Bangchak,ปั๊มน้ำมัน,3,สิ่งอำนวยความสะดวก,16.5078585,102.8119196,OpenStreetMap / Overpass API
ขอนแก่น,Khon Kaen,บางจาก,Bangchak,ปั๊มน้ำมัน,3,สิ่งอำนวยความสะดวก,16.4229677,102.772851,OpenStreetMap / Overpass API
ขอนแก่น,Khon Kaen,บางจาก,Bangchak,ปั๊มน้ำมัน,3,สิ่งอำนวยความสะดวก,16.4453668,102.7865394,OpenStreetMap / Overpass API
ขอนแก่น,Khon Kaen,บางจาก,Bangchak,ปั๊มน้ำมัน,3,สิ่งอำนวยความสะดวก,16.3799645,102.8108731,OpenStreetMap / Overpass API
ขอนแก่น,Khon Kaen,บางจาก,Bangchak,ปั๊มน้ำมัน,3,สิ่งอำนวยความสะดวก,16.4138484,102.8301659,OpenStreetMap / Overpass API
ขอนแก่น,Khon Kaen,บางจาก,Bangchak,ปั๊มน้ำมัน,3,สิ่งอำนวยความสะดวก,16.4381896,102.9273221,OpenStreetMap / Overpass API
ขอนแก่น,Khon Kaen,บางจาก,Bangchak,ปั๊มน้ำมัน,3,สิ่งอำนวยความสะดวก,16.4893559,102.8319851,OpenStreetMap / Overpass API
ขอนแก่น,Khon Kaen,บางจาก,Bangchak,ปั๊มน้ำมัน,3,สิ่งอำนวยความสะดวก,16.4744858,102.8330644,OpenStreetMap / Overpass API
ขอนแก่น,Khon Kaen,บางจาก,Bangchak,ปั๊มน้ำมัน,3,สิ่งอำนวยความสะดวก,16.4610887,102.8324923,OpenStreetMap / Overpass API
ขอนแก่น,Khon Kaen,บางจาก,Bangchak,ปั๊มน้ำมัน,3,สิ่งอำนวยความสะดวก,16.5428294,102.8296824,OpenStreetMap / Overpass API
ขอนแก่น,Khon Kaen,บางจาก,Bangchak,ปั๊มน้ำมัน,3,สิ่งอำนวยความสะดวก,16.4264319,102.828991,OpenStreetMap / Overpass API
ขอนแก่น,Khon Kaen,บางจาก,Bangchak,ปั๊มน้ำมัน,3,สิ่งอำนวยความสะดวก,16.4570503,102.831147,OpenStreetMap / Overpass API
ขอนแก่น,Khon Kaen,บางจาก,Bangchak,ปั๊มน้ำมัน,3,สิ่งอำนวยความสะดวก,16.5228235,102.8314674,OpenStreetMap / Overpass API
ขอนแก่น,Khon Kaen,บางจาก,Bangchak,ปั๊มน้ำมัน,3,สิ่งอำนวยความสะดวก,16.3656553,102.8067441,OpenStreetMap / Overpass API
ขอนแก่น,Khon Kaen,บางจาก,Bangchak,ปั๊มน้ำมัน,3,สิ่งอำนวยความสะดวก,16.4494868,102.7569357,OpenStreetMap / Overpass API
ขอนแก่น,Khon Kaen,บางจาก,Bangchak,ปั๊มน้ำมัน,3,สิ่งอำนวยความสะดวก,16.5195657,102.8316942,OpenStreetMap / Overpass API
ขอนแก่น,Khon Kaen,ป.ต.ท.,PTT,ปั๊มน้ำมัน,3,สิ่งอำนวยความสะดวก,16.4133526,102.8187594,OpenStreetMap / Overpass API
ขอนแก่น,Khon Kaen,ป.ต.ท.,PTT,ปั๊มน้ำมัน,3,สิ่งอำนวยความสะดวก,16.4483544,102.7729791,OpenStreetMap / Overpass API
ขอนแก่น,Khon Kaen,ป.ต.ท.,PTT,ปั๊มน้ำมัน,3,สิ่งอำนวยความสะดวก,16.4455473,102.7917813,OpenStreetMap / Overpass API
ขอนแก่น,Khon Kaen,ป.ต.ท.,PTT,ปั๊มน้ำมัน,3,สิ่งอำนวยความสะดวก,16.442212,102.8079026,OpenStreetMap / Overpass API
ขอนแก่น,Khon Kaen,ป.ต.ท.,PTT,ปั๊มน้ำมัน,3,สิ่งอำนวยความสะดวก,16.4500678,102.7387347,OpenStreetMap / Overpass API
ขอนแก่น,Khon Kaen,ป.ต.ท.,PTT,ปั๊มน้ำมัน,3,สิ่งอำนวยความสะดวก,16.3825687,102.810963,OpenStreetMap / Overpass API
ขอนแก่น,Khon Kaen,ป.ต.ท.,PTT,ปั๊มน้ำมัน,3,สิ่งอำนวยความสะดวก,16.4298607,102.8417897,OpenStreetMap / Overpass API
ขอนแก่น,Khon Kaen,ป.ต.ท.,PTT,ปั๊มน้ำมัน,3,สิ่งอำนวยความสะดวก,16.4208051,102.8378954,OpenStreetMap / Overpass API
ขอนแก่น,Khon Kaen,ป.ต.ท.,PTT,ปั๊มน้ำมัน,3,สิ่งอำนวยความสะดวก,16.4788656,102.8139852,OpenStreetMap / Overpass API
ขอนแก่น,Khon Kaen,ป.ต.ท.,PTT,ปั๊มน้ำมัน,3,สิ่งอำนวยความสะดวก,16.4195152,102.8205324,OpenStreetMap / Overpass API
ขอนแก่น,Khon Kaen,ป.ต.ท.,PTT,ปั๊มน้ำมัน,3,สิ่งอำนวยความสะดวก,16.4382016,102.8280859,OpenStreetMap / Overpass API
ขอนแก่น,Khon Kaen,ป.ต.ท.,PTT,ปั๊มน้ำมัน,3,สิ่งอำนวยความสะดวก,16.4053673,102.7751489,OpenStreetMap / Overpass API
ขอนแก่น,Khon Kaen,ปตท. บ้านตูม,,ปั๊มน้ำมัน,3,สิ่งอำนวยความสะดวก,16.3993529,102.8380663,OpenStreetMap / Overpass API
ขอนแก่น,Khon Kaen,ปตท. ศรีจันทร์,PTT Srichand,ปั๊มน้ำมัน,3,สิ่งอำนวยความสะดวก,16.4289795,102.855801,OpenStreetMap / Overpass API
ขอนแก่น,Khon Kaen,ปั๊มแก๊ส LPG,LPG Station,ปั๊มน้ำมัน,3,สิ่งอำนวยความสะดวก,16.4292058,102.8406334,OpenStreetMap / Overpass API
ขอนแก่น,Khon Kaen,พีที,PT,ปั๊มน้ำมัน,3,สิ่งอำนวยความสะดวก,16.3884571,102.8252527,OpenStreetMap / Overpass API
ขอนแก่น,Khon Kaen,พีที,PT,ปั๊มน้ำมัน,3,สิ่งอำนวยความสะดวก,16.4494998,102.7587837,OpenStreetMap / Overpass API
ขอนแก่น,Khon Kaen,วนิดาแก๊ส,Wanida Gas,ปั๊มน้ำมัน,3,สิ่งอำนวยความสะดวก,16.4268952,102.8770059,OpenStreetMap / Overpass API
ขอนแก่น,Khon Kaen,สุขสำราญแก๊ส,Suk Samran Gas,ปั๊มน้ำมัน,3,สิ่งอำนวยความสะดวก,16.5272074,102.8305044,OpenStreetMap / Overpass API
ขอนแก่น,Khon Kaen,เชลล์,Shell,ปั๊มน้ำมัน,3,สิ่งอำนวยความสะดวก,16.4425997,102.8049335,OpenStreetMap / Overpass API
ขอนแก่น,Khon Kaen,เชลล์,Shell,ปั๊มน้ำมัน,3,สิ่งอำนวยความสะดวก,16.450527,102.721682,OpenStreetMap / Overpass API
ขอนแก่น,Khon Kaen,เชลล์,Shell,ปั๊มน้ำมัน,3,สิ่งอำนวยความสะดวก,16.4319355,102.8286691,OpenStreetMap / Overpass API
ขอนแก่น,Khon Kaen,เชลล์,Shell,ปั๊มน้ำมัน,3,สิ่งอำนวยความสะดวก,16.5202575,102.8315975,OpenStreetMap / Overpass API
ขอนแก่น,Khon Kaen,เวิร์ลด์แก๊ส,World Gas,ปั๊มน้ำมัน,3,สิ่งอำนวยความสะดวก,16.5438958,102.8282906,OpenStreetMap / Overpass API
ขอนแก่น,Khon Kaen,เอสโซ่,Esso,ปั๊มน้ำมัน,3,สิ่งอำนวยความสะดวก,16.4497908,102.7562212,OpenStreetMap / Overpass API
ขอนแก่น,Khon Kaen,3 เภสัชกร,3 Pharmacists,ร้านขายยา,3,สิ่งอำนวยความสะดวก,16.4366566,102.8381959,OpenStreetMap / Overpass API
ขอนแก่น,Khon Kaen,Boots,,ร้านขายยา,3,สิ่งอำนวยความสะดวก,16.4324477,102.825757,OpenStreetMap / Overpass API
ขอนแก่น,Khon Kaen,Boots,,ร้านขายยา,3,สิ่งอำนวยความสะดวก,16.4917535,102.8312963,OpenStreetMap / Overpass API
ขอนแก่น,Khon Kaen,"Drugcenter Ltd., Part.",,ร้านขายยา,3,สิ่งอำนวยความสะดวก,16.462081,102.8276379,OpenStreetMap / Overpass API
ขอนแก่น,Khon Kaen,Drugs24,,ร้านขายยา,3,สิ่งอำนวยความสะดวก,16.4274719,102.8704002,OpenStreetMap / Overpass API
ขอนแก่น,Khon Kaen,Fascino,,ร้านขายยา,3,สิ่งอำนวยความสะดวก,16.4289486,102.8541353,OpenStreetMap / Overpass API
ขอนแก่น,Khon Kaen,KR Pharma,,ร้านขายยา,3,สิ่งอำนวยความสะดวก,16.4061164,102.8386752,OpenStreetMap / Overpass API
ขอนแก่น,Khon Kaen,Pharmacy,,ร้านขายยา,3,สิ่งอำนวยความสะดวก,16.4379715,102.7868999,OpenStreetMap / Overpass API
ขอนแก่น,Khon Kaen,คลังยา,Khlang Ya,ร้านขายยา,3,สิ่งอำนวยความสะดวก,16.4347044,102.8358883,OpenStreetMap / Overpass API
ขอนแก่น,Khon Kaen,คลินิกยาแก่นนคร,Kaen Nakhon Pharmaceutical Clinic,ร้านขายยา,3,สิ่งอำนวยความสะดวก,16.4150426,102.824381,OpenStreetMap / Overpass API
ขอนแก่น,Khon Kaen,คลินิคหมอยา,Clinic Mhorya,ร้านขายยา,3,สิ่งอำนวยความสะดวก,16.5359048,102.8297916,OpenStreetMap / Overpass API
ขอนแก่น,Khon Kaen,ชาตะผดุงเภสัช,Chata Phadung Bhesaj,ร้านขายยา,3,สิ่งอำนวยความสะดวก,16.4268086,102.851066,OpenStreetMap / Overpass API
ขอนแก่น,Khon Kaen,ซันไชน์ดรักส์,Sunshine Drugs,ร้านขายยา,3,สิ่งอำนวยความสะดวก,16.4306318,102.8329561,OpenStreetMap / Overpass API
ขอนแก่น,Khon Kaen,ดีฟอร์ยู,D4U,ร้านขายยา,3,สิ่งอำนวยความสะดวก,16.4219515,102.8330525,OpenStreetMap / Overpass API
ขอนแก่น,Khon Kaen,ตำรับยา,Tamrabyaa,ร้านขายยา,3,สิ่งอำนวยความสะดวก,16.4133521,102.8320789,OpenStreetMap / Overpass API
ขอนแก่น,Khon Kaen,ต้นเภสัช,Ton Bhesaj,ร้านขายยา,3,สิ่งอำนวยความสะดวก,16.4257577,102.8342045,OpenStreetMap / Overpass API
ขอนแก่น,Khon Kaen,ทิเซงฟาร์มาซี,Ti Seng Pharmacy,ร้านขายยา,3,สิ่งอำนวยความสะดวก,16.4300087,102.8377548,OpenStreetMap / Overpass API
ขอนแก่น,Khon Kaen,ทีเอสฟาร์มา,TS Pharma,ร้านขายยา,3,สิ่งอำนวยความสะดวก,16.4302553,102.8357349,OpenStreetMap / Overpass API
ขอนแก่น,Khon Kaen,ธัญญาพรเภสัช,Thanyaporn Bhesaj,ร้านขายยา,3,สิ่งอำนวยความสะดวก,16.4271462,102.8350702,OpenStreetMap / Overpass API
ขอนแก่น,Khon Kaen,บะขามเภสัช,Ba-Kham Bhesaj,ร้านขายยา,3,สิ่งอำนวยความสะดวก,16.4310425,102.856424,OpenStreetMap / Overpass API
ขอนแก่น,Khon Kaen,บ้านยา 48,48 Drug House,ร้านขายยา,3,สิ่งอำนวยความสะดวก,16.419866,102.8494289,OpenStreetMap / Overpass API
ขอนแก่น,Khon Kaen,บ้านยาตลับนาค,Ban Ya Talap Nak,ร้านขายยา,3,สิ่งอำนวยความสะดวก,16.4061915,102.8395008,OpenStreetMap / Overpass API
ขอนแก่น,Khon Kaen,บ้านยาพรพัฒน์,Baan Yaa Pornpat,ร้านขายยา,3,สิ่งอำนวยความสะดวก,16.4278842,102.8337119,OpenStreetMap / Overpass API
ขอนแก่น,Khon Kaen,บ้านยาภัทร,Pat Pharmacy,ร้านขายยา,3,สิ่งอำนวยความสะดวก,16.4141855,102.8325111,OpenStreetMap / Overpass API
ขอนแก่น,Khon Kaen,บ้านยาอารี,Aree Pharmacy,ร้านขายยา,3,สิ่งอำนวยความสะดวก,16.4134934,102.8337996,OpenStreetMap / Overpass API
ขอนแก่น,Khon Kaen,บ้านยาเภสัช มอขอ,Ban Ya Pharmacy (Mor Khor),ร้านขายยา,3,สิ่งอำนวยความสะดวก,16.4606079,102.8278473,OpenStreetMap / Overpass API
ขอนแก่น,Khon Kaen,บ้านรักษ์ยา,Baan Rak Yaa,ร้านขายยา,3,สิ่งอำนวยความสะดวก,16.4239484,102.8433414,OpenStreetMap / Overpass API
ขอนแก่น,Khon Kaen,บ้านเภสัชกร,Baan Bhesajakorn,ร้านขายยา,3,สิ่งอำนวยความสะดวก,16.4340021,102.8341211,OpenStreetMap / Overpass API
ขอนแก่น,Khon Kaen,ฟาร์มาคอน (ท่งจี่ตึ้ง),Pharmacon (Thong Ji Tueng),ร้านขายยา,3,สิ่งอำนวยความสะดวก,16.4332151,102.8340418,OpenStreetMap / Overpass API
ขอนแก่น,Khon Kaen,ฟาร์มาคอน เภสัชกรประสิทธิ์ (ท่งจี่ตึ้ง) (สาขา 2),,ร้านขายยา,3,สิ่งอำนวยความสะดวก,16.4331266,102.7980315,Google Maps
ขอนแก่น,Khon Kaen,มีสุขเภสัช,Meesuk Bhesaj,ร้านขายยา,3,สิ่งอำนวยความสะดวก,16.4250856,102.839294,OpenStreetMap / Overpass API
ขอนแก่น,Khon Kaen,มีออมเภสัช,Mee Aum Bhesaj,ร้านขายยา,3,สิ่งอำนวยความสะดวก,16.4207435,102.8499299,OpenStreetMap / Overpass API
ขอนแก่น,Khon Kaen,"ร้านขายยา ดรัก แอนด์ ฟาร์ม่า (Drug and Pharma, Pharmacy)",,ร้านขายยา,3,สิ่งอำนวยความสะดวก,16.4338209,102.7754952,Google Maps
ขอนแก่น,Khon Kaen,ร้านขายยา วสส. ขอนแก่น,SCPHKK Pharmacy,ร้านขายยา,3,สิ่งอำนวยความสะดวก,16.4245052,102.8436918,OpenStreetMap / Overpass API
ขอนแก่น,Khon Kaen,ร้านยา มหาวิทยาลัยขอนแก่น,Drug Store Khon Kaen University,ร้านขายยา,3,สิ่งอำนวยความสะดวก,16.4414369,102.8188664,OpenStreetMap / Overpass API
ขอนแก่น,Khon Kaen,ร้านยามิดไนท์ฟาร์ม่า,,ร้านขายยา,3,สิ่งอำนวยความสะดวก,16.4491475,102.824646,Google Maps
ขอนแก่น,Khon Kaen,ร้านยาเพื่อนเภสัช,Friend's Phaymacy Drugstore,ร้านขายยา,3,สิ่งอำนวยความสะดวก,16.479723,102.8031394,OpenStreetMap / Overpass API
ขอนแก่น,Khon Kaen,สถานปฏิบัติการเภสัชกรรมชุมชน 3,KKU Community Pharmacy,ร้านขายยา,3,สิ่งอำนวยความสะดวก,16.4340921,102.8364653,OpenStreetMap / Overpass API
ขอนแก่น,Khon Kaen,สถานียา,Sathani Ya,ร้านขายยา,3,สิ่งอำนวยความสะดวก,16.4260543,102.8281286,OpenStreetMap / Overpass API
ขอนแก่น,Khon Kaen,สมพลเภสัช,Somphol Bhesaj,ร้านขายยา,3,สิ่งอำนวยความสะดวก,16.425819,102.8332697,OpenStreetMap / Overpass API
ขอนแก่น,Khon Kaen,สมายล์ดรัก,Smile Drug,ร้านขายยา,3,สิ่งอำนวยความสะดวก,16.4343842,102.860116,OpenStreetMap / Overpass API
ขอนแก่น,Khon Kaen,สองเภสัชกร,Song Bhesajjakorn,ร้านขายยา,3,สิ่งอำนวยความสะดวก,16.4237897,102.8433106,OpenStreetMap / Overpass API
ขอนแก่น,Khon Kaen,สามประสานยาไทย,Sam Prasan Ya Thai,ร้านขายยา,3,สิ่งอำนวยความสะดวก,16.4385326,102.8352606,OpenStreetMap / Overpass API
ขอนแก่น,Khon Kaen,หนองใหญ่เภสัช,Nong Yai Bhesaj,ร้านขายยา,3,สิ่งอำนวยความสะดวก,16.4271728,102.86928,OpenStreetMap / Overpass API
ขอนแก่น,Khon Kaen,หัวมุมเภสัช,Hua Moom Bhesaj,ร้านขายยา,3,สิ่งอำนวยความสะดวก,16.4256965,102.8347454,OpenStreetMap / Overpass API
ขอนแก่น,Khon Kaen,อุษณีย์เภสัช,Ussanee Bhesaj,ร้านขายยา,3,สิ่งอำนวยความสะดวก,16.4254686,102.8334434,OpenStreetMap / Overpass API
ขอนแก่น,Khon Kaen,เจ พี ฟาร์มา,J P Pharma,ร้านขายยา,3,สิ่งอำนวยความสะดวก,16.4376767,102.8305321,OpenStreetMap / Overpass API
ขอนแก่น,Khon Kaen,เรือนยา,Ruenya,ร้านขายยา,3,สิ่งอำนวยความสะดวก,16.4643739,102.8276715,OpenStreetMap / Overpass API
ขอนแก่น,Khon Kaen,เศรษฐียา,,ร้านขายยา,3,สิ่งอำนวยความสะดวก,16.48136,102.779931,Google Maps
ขอนแก่น,Khon Kaen,เฮงดีเภสัช,Heng Dee Bhesaj,ร้านขายยา,3,สิ่งอำนวยความสะดวก,16.4188164,102.8325345,OpenStreetMap / Overpass API
ขอนแก่น,Khon Kaen,โฮมยา,Home Ya,ร้านขายยา,3,สิ่งอำนวยความสะดวก,16.4225991,102.8369424,OpenStreetMap / Overpass API
ขอนแก่น,Khon Kaen,7-Elev,,ร้านสะดวกซื้อ,3,สิ่งอำนวยความสะดวก,16.4380865,102.7869722,OpenStreetMap / Overpass API
ขอนแก่น,Khon Kaen,7-Eleven,7-Eleven,ร้านสะดวกซื้อ,3,สิ่งอำนวยความสะดวก,16.4131456,102.8187211,OpenStreetMap / Overpass API
ขอนแก่น,Khon Kaen,7-Eleven,7-Eleven,ร้านสะดวกซื้อ,3,สิ่งอำนวยความสะดวก,16.448321,102.7732687,OpenStreetMap / Overpass API
ขอนแก่น,Khon Kaen,7-Eleven,7-Eleven,ร้านสะดวกซื้อ,3,สิ่งอำนวยความสะดวก,16.4787303,102.8143369,OpenStreetMap / Overpass API
ขอนแก่น,Khon Kaen,7-Eleven,7-Eleven,ร้านสะดวกซื้อ,3,สิ่งอำนวยความสะดวก,16.4486711,102.841085,OpenStreetMap / Overpass API
ขอนแก่น,Khon Kaen,7-Eleven,7-Eleven,ร้านสะดวกซื้อ,3,สิ่งอำนวยความสะดวก,16.4278915,102.8335257,OpenStreetMap / Overpass API
ขอนแก่น,Khon Kaen,7-Eleven,7-Eleven,ร้านสะดวกซื้อ,3,สิ่งอำนวยความสะดวก,16.4166465,102.8343316,OpenStreetMap / Overpass API
ขอนแก่น,Khon Kaen,7-Eleven,7-Eleven,ร้านสะดวกซื้อ,3,สิ่งอำนวยความสะดวก,16.4255507,102.8334525,OpenStreetMap / Overpass API
ขอนแก่น,Khon Kaen,7-Eleven,7-Eleven,ร้านสะดวกซื้อ,3,สิ่งอำนวยความสะดวก,16.4225091,102.8345917,OpenStreetMap / Overpass API
ขอนแก่น,Khon Kaen,7-Eleven,7-Eleven,ร้านสะดวกซื้อ,3,สิ่งอำนวยความสะดวก,16.413344,102.8324689,OpenStreetMap / Overpass API
ขอนแก่น,Khon Kaen,7-Eleven,7-Eleven,ร้านสะดวกซื้อ,3,สิ่งอำนวยความสะดวก,16.4293237,102.835358,OpenStreetMap / Overpass API
ขอนแก่น,Khon Kaen,7-Eleven,7-Eleven,ร้านสะดวกซื้อ,3,สิ่งอำนวยความสะดวก,16.4191014,102.8327357,OpenStreetMap / Overpass API
ขอนแก่น,Khon Kaen,7-Eleven,7-Eleven,ร้านสะดวกซื้อ,3,สิ่งอำนวยความสะดวก,16.430678,102.8325512,OpenStreetMap / Overpass API
ขอนแก่น,Khon Kaen,7-Eleven,7-Eleven,ร้านสะดวกซื้อ,3,สิ่งอำนวยความสะดวก,16.4349047,102.8359163,OpenStreetMap / Overpass API
ขอนแก่น,Khon Kaen,7-Eleven,7-Eleven,ร้านสะดวกซื้อ,3,สิ่งอำนวยความสะดวก,16.4058708,102.8391101,OpenStreetMap / Overpass API
ขอนแก่น,Khon Kaen,7-Eleven,7-Eleven,ร้านสะดวกซื้อ,3,สิ่งอำนวยความสะดวก,16.4187136,102.8405471,OpenStreetMap / Overpass API
ขอนแก่น,Khon Kaen,7-Eleven,7-Eleven,ร้านสะดวกซื้อ,3,สิ่งอำนวยความสะดวก,16.4368773,102.8382214,OpenStreetMap / Overpass API
ขอนแก่น,Khon Kaen,7-Eleven,7-Eleven,ร้านสะดวกซื้อ,3,สิ่งอำนวยความสะดวก,16.3985716,102.830933,OpenStreetMap / Overpass API
ขอนแก่น,Khon Kaen,7-Eleven,7-Eleven,ร้านสะดวกซื้อ,3,สิ่งอำนวยความสะดวก,16.4290124,102.8471735,OpenStreetMap / Overpass API
ขอนแก่น,Khon Kaen,7-Eleven,7-Eleven,ร้านสะดวกซื้อ,3,สิ่งอำนวยความสะดวก,16.427685,102.8679747,OpenStreetMap / Overpass API
ขอนแก่น,Khon Kaen,7-Eleven,7-Eleven,ร้านสะดวกซื้อ,3,สิ่งอำนวยความสะดวก,16.4342662,102.8610972,OpenStreetMap / Overpass API
ขอนแก่น,Khon Kaen,7-Eleven,7-Eleven,ร้านสะดวกซื้อ,3,สิ่งอำนวยความสะดวก,16.4289163,102.8543097,OpenStreetMap / Overpass API
ขอนแก่น,Khon Kaen,7-Eleven,7-Eleven,ร้านสะดวกซื้อ,3,สิ่งอำนวยความสะดวก,16.4276723,102.863312,OpenStreetMap / Overpass API
ขอนแก่น,Khon Kaen,7-Eleven,7-Eleven,ร้านสะดวกซื้อ,3,สิ่งอำนวยความสะดวก,16.4285706,102.849863,OpenStreetMap / Overpass API
ขอนแก่น,Khon Kaen,7-Eleven,7-Eleven,ร้านสะดวกซื้อ,3,สิ่งอำนวยความสะดวก,16.4391769,102.832892,OpenStreetMap / Overpass API
ขอนแก่น,Khon Kaen,7-Eleven,7-Eleven,ร้านสะดวกซื้อ,3,สิ่งอำนวยความสะดวก,16.450469,102.795519,OpenStreetMap / Overpass API
ขอนแก่น,Khon Kaen,7-Eleven,7-Eleven,ร้านสะดวกซื้อ,3,สิ่งอำนวยความสะดวก,16.4403897,102.824973,OpenStreetMap / Overpass API
ขอนแก่น,Khon Kaen,7-Eleven,7-Eleven,ร้านสะดวกซื้อ,3,สิ่งอำนวยความสะดวก,16.4362655,102.799724,OpenStreetMap / Overpass API
ขอนแก่น,Khon Kaen,7-Eleven,7-Eleven,ร้านสะดวกซื้อ,3,สิ่งอำนวยความสะดวก,16.4221891,102.8049113,OpenStreetMap / Overpass API
ขอนแก่น,Khon Kaen,7-Eleven,7-Eleven,ร้านสะดวกซื้อ,3,สิ่งอำนวยความสะดวก,16.4341573,102.814526,OpenStreetMap / Overpass API
ขอนแก่น,Khon Kaen,7-Eleven,7-Eleven,ร้านสะดวกซื้อ,3,สิ่งอำนวยความสะดวก,16.4600418,102.8278867,OpenStreetMap / Overpass API
ขอนแก่น,Khon Kaen,7-Eleven,7-Eleven,ร้านสะดวกซื้อ,3,สิ่งอำนวยความสะดวก,16.4643701,102.8275168,OpenStreetMap / Overpass API
ขอนแก่น,Khon Kaen,7-Eleven,7-Eleven,ร้านสะดวกซื้อ,3,สิ่งอำนวยความสะดวก,16.4778671,102.8199008,OpenStreetMap / Overpass API
ขอนแก่น,Khon Kaen,7-Eleven,7-Eleven,ร้านสะดวกซื้อ,3,สิ่งอำนวยความสะดวก,16.4149834,102.8246014,OpenStreetMap / Overpass API
ขอนแก่น,Khon Kaen,7-Eleven,7-Eleven,ร้านสะดวกซื้อ,3,สิ่งอำนวยความสะดวก,16.4212966,102.8185171,OpenStreetMap / Overpass API
ขอนแก่น,Khon Kaen,7-Eleven,7-Eleven,ร้านสะดวกซื้อ,3,สิ่งอำนวยความสะดวก,16.421277,102.8156579,OpenStreetMap / Overpass API
ขอนแก่น,Khon Kaen,7-Eleven,7-Eleven,ร้านสะดวกซื้อ,3,สิ่งอำนวยความสะดวก,16.4778723,102.8234023,OpenStreetMap / Overpass API
ขอนแก่น,Khon Kaen,7-Eleven,7-Eleven,ร้านสะดวกซื้อ,3,สิ่งอำนวยความสะดวก,16.4794381,102.8071113,OpenStreetMap / Overpass API
ขอนแก่น,Khon Kaen,7-Eleven,7-Eleven,ร้านสะดวกซื้อ,3,สิ่งอำนวยความสะดวก,16.4114815,102.8112278,OpenStreetMap / Overpass API
ขอนแก่น,Khon Kaen,7-Eleven,7-Eleven,ร้านสะดวกซื้อ,3,สิ่งอำนวยความสะดวก,16.4252408,102.8510344,OpenStreetMap / Overpass API
ขอนแก่น,Khon Kaen,7-Eleven,7-Eleven,ร้านสะดวกซื้อ,3,สิ่งอำนวยความสะดวก,16.4500163,102.7381395,OpenStreetMap / Overpass API
ขอนแก่น,Khon Kaen,7-Eleven,7-Eleven,ร้านสะดวกซื้อ,3,สิ่งอำนวยความสะดวก,16.5299762,102.8298572,OpenStreetMap / Overpass API
ขอนแก่น,Khon Kaen,7-Eleven,7-Eleven,ร้านสะดวกซื้อ,3,สิ่งอำนวยความสะดวก,16.4236447,102.84354,OpenStreetMap / Overpass API
ขอนแก่น,Khon Kaen,7-Eleven,7-Eleven,ร้านสะดวกซื้อ,3,สิ่งอำนวยความสะดวก,16.4198637,102.8496744,OpenStreetMap / Overpass API
ขอนแก่น,Khon Kaen,7-Eleven,7-Eleven,ร้านสะดวกซื้อ,3,สิ่งอำนวยความสะดวก,16.4684539,102.8296761,OpenStreetMap / Overpass API
ขอนแก่น,Khon Kaen,7-Eleven,7-Eleven,ร้านสะดวกซื้อ,3,สิ่งอำนวยความสะดวก,16.4212068,102.8237036,OpenStreetMap / Overpass API
ขอนแก่น,Khon Kaen,7-Eleven,7-Eleven,ร้านสะดวกซื้อ,3,สิ่งอำนวยความสะดวก,16.4255935,102.8397382,OpenStreetMap / Overpass API
ขอนแก่น,Khon Kaen,7-Eleven,7-Eleven,ร้านสะดวกซื้อ,3,สิ่งอำนวยความสะดวก,16.4543257,102.8426143,OpenStreetMap / Overpass API
ขอนแก่น,Khon Kaen,7-Eleven,7-Eleven,ร้านสะดวกซื้อ,3,สิ่งอำนวยความสะดวก,16.4656594,102.8248548,OpenStreetMap / Overpass API
ขอนแก่น,Khon Kaen,7-Eleven,7-Eleven,ร้านสะดวกซื้อ,3,สิ่งอำนวยความสะดวก,16.4261446,102.8274555,OpenStreetMap / Overpass API
ขอนแก่น,Khon Kaen,7-Eleven,,ร้านสะดวกซื้อ,3,สิ่งอำนวยความสะดวก,16.3899054,102.8053044,OpenStreetMap / Overpass API
ขอนแก่น,Khon Kaen,7-Eleven,7-Eleven,ร้านสะดวกซื้อ,3,สิ่งอำนวยความสะดวก,16.4179455,102.8323982,OpenStreetMap / Overpass API
ขอนแก่น,Khon Kaen,7-Eleven,7-Eleven,ร้านสะดวกซื้อ,3,สิ่งอำนวยความสะดวก,16.525728,102.8319193,OpenStreetMap / Overpass API
ขอนแก่น,Khon Kaen,7-Eleven,,ร้านสะดวกซื้อ,3,สิ่งอำนวยความสะดวก,16.308879,102.791252,OpenStreetMap / Overpass API
ขอนแก่น,Khon Kaen,7-Eleven,,ร้านสะดวกซื้อ,3,สิ่งอำนวยความสะดวก,16.4363362,102.8493141,OpenStreetMap / Overpass API
ขอนแก่น,Khon Kaen,7-Eleven,,ร้านสะดวกซื้อ,3,สิ่งอำนวยความสะดวก,16.4282169,102.8857736,OpenStreetMap / Overpass API
ขอนแก่น,Khon Kaen,7-Eleven,7-Eleven,ร้านสะดวกซื้อ,3,สิ่งอำนวยความสะดวก,16.4321465,102.8410327,OpenStreetMap / Overpass API
ขอนแก่น,Khon Kaen,7-Eleven,7-Eleven,ร้านสะดวกซื้อ,3,สิ่งอำนวยความสะดวก,16.4267824,102.8371449,OpenStreetMap / Overpass API
ขอนแก่น,Khon Kaen,7-Eleven,,ร้านสะดวกซื้อ,3,สิ่งอำนวยความสะดวก,16.4518906,102.8309745,OpenStreetMap / Overpass API
ขอนแก่น,Khon Kaen,7-Eleven,,ร้านสะดวกซื้อ,3,สิ่งอำนวยความสะดวก,16.4908495,102.8321439,OpenStreetMap / Overpass API
ขอนแก่น,Khon Kaen,7-Eleven,,ร้านสะดวกซื้อ,3,สิ่งอำนวยความสะดวก,16.5354445,102.8297433,OpenStreetMap / Overpass API
ขอนแก่น,Khon Kaen,7-Eleven,,ร้านสะดวกซื้อ,3,สิ่งอำนวยความสะดวก,16.4533853,102.845246,OpenStreetMap / Overpass API
ขอนแก่น,Khon Kaen,7-Eleven,,ร้านสะดวกซื้อ,3,สิ่งอำนวยความสะดวก,16.4115228,102.9000536,OpenStreetMap / Overpass API
ขอนแก่น,Khon Kaen,7-Eleven,,ร้านสะดวกซื้อ,3,สิ่งอำนวยความสะดวก,16.4360503,102.7592644,OpenStreetMap / Overpass API
ขอนแก่น,Khon Kaen,7-Eleven,,ร้านสะดวกซื้อ,3,สิ่งอำนวยความสะดวก,16.4608977,102.8569188,OpenStreetMap / Overpass API
ขอนแก่น,Khon Kaen,7-Eleven,,ร้านสะดวกซื้อ,3,สิ่งอำนวยความสะดวก,16.3901552,102.8264086,OpenStreetMap / Overpass API
ขอนแก่น,Khon Kaen,7-Eleven,,ร้านสะดวกซื้อ,3,สิ่งอำนวยความสะดวก,16.4682213,102.8326377,OpenStreetMap / Overpass API
ขอนแก่น,Khon Kaen,7-Eleven,,ร้านสะดวกซื้อ,3,สิ่งอำนวยความสะดวก,16.4600882,102.8247051,OpenStreetMap / Overpass API
ขอนแก่น,Khon Kaen,7-Eleven,7-Eleven,ร้านสะดวกซื้อ,3,สิ่งอำนวยความสะดวก,16.4379431,102.8277839,OpenStreetMap / Overpass API
ขอนแก่น,Khon Kaen,7-Eleven,7-Eleven,ร้านสะดวกซื้อ,3,สิ่งอำนวยความสะดวก,16.452619,102.8319375,OpenStreetMap / Overpass API
ขอนแก่น,Khon Kaen,7-Eleven,7-Eleven,ร้านสะดวกซื้อ,3,สิ่งอำนวยความสะดวก,16.4296287,102.8310893,OpenStreetMap / Overpass API
ขอนแก่น,Khon Kaen,7-Eleven,7-Eleven,ร้านสะดวกซื้อ,3,สิ่งอำนวยความสะดวก,16.4381914,102.9360968,OpenStreetMap / Overpass API
ขอนแก่น,Khon Kaen,7-Eleven,,ร้านสะดวกซื้อ,3,สิ่งอำนวยความสะดวก,16.4865497,102.8156779,OpenStreetMap / Overpass API
ขอนแก่น,Khon Kaen,7-Eleven,,ร้านสะดวกซื้อ,3,สิ่งอำนวยความสะดวก,16.4801286,102.8158498,OpenStreetMap / Overpass API
ขอนแก่น,Khon Kaen,7-Eleven,,ร้านสะดวกซื้อ,3,สิ่งอำนวยความสะดวก,16.4803158,102.8118595,OpenStreetMap / Overpass API
ขอนแก่น,Khon Kaen,7-Eleven,,ร้านสะดวกซื้อ,3,สิ่งอำนวยความสะดวก,16.4820984,102.8194262,OpenStreetMap / Overpass API
ขอนแก่น,Khon Kaen,7-Eleven,,ร้านสะดวกซื้อ,3,สิ่งอำนวยความสะดวก,16.4883568,102.8247937,OpenStreetMap / Overpass API
ขอนแก่น,Khon Kaen,7-Eleven,,ร้านสะดวกซื้อ,3,สิ่งอำนวยความสะดวก,16.4053292,102.7823582,OpenStreetMap / Overpass API
ขอนแก่น,Khon Kaen,7-Eleven,,ร้านสะดวกซื้อ,3,สิ่งอำนวยความสะดวก,16.4054205,102.7746527,OpenStreetMap / Overpass API
ขอนแก่น,Khon Kaen,7-Eleven สาขา ถนนกัลปพฤกษ์ มข. (16013),,ร้านสะดวกซื้อ,3,สิ่งอำนวยความสะดวก,16.4434876,102.8131777,Google Maps
ขอนแก่น,Khon Kaen,7-Eleven สาขา ถนนกัลปพฤกษ์ มข. (16013),,ร้านสะดวกซื้อ,3,สิ่งอำนวยความสะดวก,16.4463885,102.7839858,Google Maps
ขอนแก่น,Khon Kaen,7-Eleven สาขา อดุลซิตี้ (13571),,ร้านสะดวกซื้อ,3,สิ่งอำนวยความสะดวก,16.441742,102.8157588,Google Maps
ขอนแก่น,Khon Kaen,7-Eleven สาขา อดุลซิตี้ (13571),,ร้านสะดวกซื้อ,3,สิ่งอำนวยความสะดวก,16.4572335,102.8168954,Google Maps
ขอนแก่น,Khon Kaen,7-Eleven สาขา อดุลยาราม ซอย 1 (17251),,ร้านสะดวกซื้อ,3,สิ่งอำนวยความสะดวก,16.4600404,102.7887288,Google Maps
ขอนแก่น,Khon Kaen,ABC มินิมาร์ท,ABC Minimart,ร้านสะดวกซื้อ,3,สิ่งอำนวยความสะดวก,16.4365166,102.8470041,OpenStreetMap / Overpass API
ขอนแก่น,Khon Kaen,Big C Mini,Big C Mini,ร้านสะดวกซื้อ,3,สิ่งอำนวยความสะดวก,16.4183283,102.8495568,OpenStreetMap / Overpass API
ขอนแก่น,Khon Kaen,Big C Mini,Big C Mini,ร้านสะดวกซื้อ,3,สิ่งอำนวยความสะดวก,16.4226879,102.836945,OpenStreetMap / Overpass API
ขอนแก่น,Khon Kaen,Big C Mini,Big C Mini,ร้านสะดวกซื้อ,3,สิ่งอำนวยความสะดวก,16.387703,102.8242521,OpenStreetMap / Overpass API
ขอนแก่น,Khon Kaen,Big C Mini,Big C Mini,ร้านสะดวกซื้อ,3,สิ่งอำนวยความสะดวก,16.4356375,102.8382835,OpenStreetMap / Overpass API
ขอนแก่น,Khon Kaen,Big C Mini,Big C Mini,ร้านสะดวกซื้อ,3,สิ่งอำนวยความสะดวก,16.4903065,102.816513,OpenStreetMap / Overpass API
ขอนแก่น,Khon Kaen,CJ MORE ซีเจ มอร์ สาขาตลาดบางลำภู ขอนแก่น,,ร้านสะดวกซื้อ,3,สิ่งอำนวยความสะดวก,16.4294522,102.7614784,Google Maps
ขอนแก่น,Khon Kaen,CJ MORE ซีเจ มอร์ สาขาถนนศิลปสนิท,,ร้านสะดวกซื้อ,3,สิ่งอำนวยความสะดวก,16.4577684,102.7515941,Google Maps
ขอนแก่น,Khon Kaen,CJ MORE ซีเจ มอร์ สาขาถนนศิลปสนิท,,ร้านสะดวกซื้อ,3,สิ่งอำนวยความสะดวก,16.446194,102.7534232,Google Maps
ขอนแก่น,Khon Kaen,CJ MORE ซีเจ มอร์ สาขาถนนอดุลยาราม,,ร้านสะดวกซื้อ,3,สิ่งอำนวยความสะดวก,16.4484845,102.7907528,Google Maps
ขอนแก่น,Khon Kaen,FamilyMart,,ร้านสะดวกซื้อ,3,สิ่งอำนวยความสะดวก,16.4275967,102.8686392,OpenStreetMap / Overpass API
ขอนแก่น,Khon Kaen,FamilyMart,,ร้านสะดวกซื้อ,3,สิ่งอำนวยความสะดวก,16.4214535,102.8063669,OpenStreetMap / Overpass API
ขอนแก่น,Khon Kaen,FamilyMart,,ร้านสะดวกซื้อ,3,สิ่งอำนวยความสะดวก,16.4223083,102.7995616,OpenStreetMap / Overpass API
ขอนแก่น,Khon Kaen,FamilyMart,,ร้านสะดวกซื้อ,3,สิ่งอำนวยความสะดวก,16.4575342,102.8280601,OpenStreetMap / Overpass API
ขอนแก่น,Khon Kaen,FamilyMart,,ร้านสะดวกซื้อ,3,สิ่งอำนวยความสะดวก,16.415145,102.8239985,OpenStreetMap / Overpass API
ขอนแก่น,Khon Kaen,FamilyMart,,ร้านสะดวกซื้อ,3,สิ่งอำนวยความสะดวก,16.4214517,102.8151424,OpenStreetMap / Overpass API
ขอนแก่น,Khon Kaen,FamilyMart,,ร้านสะดวกซื้อ,3,สิ่งอำนวยความสะดวก,16.4791628,102.8101505,OpenStreetMap / Overpass API
ขอนแก่น,Khon Kaen,FamilyMart,,ร้านสะดวกซื้อ,3,สิ่งอำนวยความสะดวก,16.4258071,102.8304046,OpenStreetMap / Overpass API
ขอนแก่น,Khon Kaen,FamilyMart,,ร้านสะดวกซื้อ,3,สิ่งอำนวยความสะดวก,16.4667322,102.8317275,OpenStreetMap / Overpass API
ขอนแก่น,Khon Kaen,FamilyMart,,ร้านสะดวกซื้อ,3,สิ่งอำนวยความสะดวก,16.4212107,102.8234591,OpenStreetMap / Overpass API
ขอนแก่น,Khon Kaen,FamilyMart,,ร้านสะดวกซื้อ,3,สิ่งอำนวยความสะดวก,16.4182746,102.8450883,OpenStreetMap / Overpass API
ขอนแก่น,Khon Kaen,FamilyMart,,ร้านสะดวกซื้อ,3,สิ่งอำนวยความสะดวก,16.4626678,102.8465443,OpenStreetMap / Overpass API
ขอนแก่น,Khon Kaen,FamilyMart,,ร้านสะดวกซื้อ,3,สิ่งอำนวยความสะดวก,16.4325631,102.8524527,OpenStreetMap / Overpass API
ขอนแก่น,Khon Kaen,FamilyMart,,ร้านสะดวกซื้อ,3,สิ่งอำนวยความสะดวก,16.4173249,102.8323692,OpenStreetMap / Overpass API
ขอนแก่น,Khon Kaen,FamilyMart,,ร้านสะดวกซื้อ,3,สิ่งอำนวยความสะดวก,16.4369624,102.8440207,OpenStreetMap / Overpass API
ขอนแก่น,Khon Kaen,FamilyMart,,ร้านสะดวกซื้อ,3,สิ่งอำนวยความสะดวก,16.4297539,102.8871372,OpenStreetMap / Overpass API
ขอนแก่น,Khon Kaen,JJJ Mart,,ร้านสะดวกซื้อ,3,สิ่งอำนวยความสะดวก,16.5205246,102.8315761,OpenStreetMap / Overpass API
ขอนแก่น,Khon Kaen,Jiffy,Jiffy,ร้านสะดวกซื้อ,3,สิ่งอำนวยความสะดวก,16.4455014,102.7920359,OpenStreetMap / Overpass API
ขอนแก่น,Khon Kaen,Jiffy,Jiffy,ร้านสะดวกซื้อ,3,สิ่งอำนวยความสะดวก,16.4422911,102.8076649,OpenStreetMap / Overpass API
ขอนแก่น,Khon Kaen,Jiffy,Jiffy,ร้านสะดวกซื้อ,3,สิ่งอำนวยความสะดวก,16.4193364,102.8204514,OpenStreetMap / Overpass API
ขอนแก่น,Khon Kaen,Jiffy,Jiffy,ร้านสะดวกซื้อ,3,สิ่งอำนวยความสะดวก,16.4364503,102.850558,OpenStreetMap / Overpass API
ขอนแก่น,Khon Kaen,Lotus Express,Lotus Express,ร้านสะดวกซื้อ,3,สิ่งอำนวยความสะดวก,16.4062407,102.8395183,OpenStreetMap / Overpass API
ขอนแก่น,Khon Kaen,Lotus Express,Lotus Express,ร้านสะดวกซื้อ,3,สิ่งอำนวยความสะดวก,16.4748774,102.8601917,OpenStreetMap / Overpass API
ขอนแก่น,Khon Kaen,Lotus Express,Lotus Express,ร้านสะดวกซื้อ,3,สิ่งอำนวยความสะดวก,16.4252121,102.8394299,OpenStreetMap / Overpass API
ขอนแก่น,Khon Kaen,Lotus Express,Lotus Express,ร้านสะดวกซื้อ,3,สิ่งอำนวยความสะดวก,16.4173493,102.8326455,OpenStreetMap / Overpass API
ขอนแก่น,Khon Kaen,Lotus Express,Lotus Express,ร้านสะดวกซื้อ,3,สิ่งอำนวยความสะดวก,16.4202489,102.8396916,OpenStreetMap / Overpass API
ขอนแก่น,Khon Kaen,Lotus's go fresh,,ร้านสะดวกซื้อ,3,สิ่งอำนวยความสะดวก,16.4343952,102.8600246,OpenStreetMap / Overpass API
ขอนแก่น,Khon Kaen,Lotus's go fresh,Lotus Express,ร้านสะดวกซื้อ,3,สิ่งอำนวยความสะดวก,16.4540743,102.8425736,OpenStreetMap / Overpass API
ขอนแก่น,Khon Kaen,Lotus's go fresh,,ร้านสะดวกซื้อ,3,สิ่งอำนวยความสะดวก,16.53569,102.8297519,OpenStreetMap / Overpass API
ขอนแก่น,Khon Kaen,Lotus's go fresh,,ร้านสะดวกซื้อ,3,สิ่งอำนวยความสะดวก,16.4865019,102.8159426,OpenStreetMap / Overpass API
ขอนแก่น,Khon Kaen,Lotus's go fresh,,ร้านสะดวกซื้อ,3,สิ่งอำนวยความสะดวก,16.488363,102.8240459,OpenStreetMap / Overpass API
ขอนแก่น,Khon Kaen,Lotus's go fresh,,ร้านสะดวกซื้อ,3,สิ่งอำนวยความสะดวก,16.4899804,102.8123548,OpenStreetMap / Overpass API
ขอนแก่น,Khon Kaen,Select,,ร้านสะดวกซื้อ,3,สิ่งอำนวยความสะดวก,16.4427446,102.8046112,OpenStreetMap / Overpass API
ขอนแก่น,Khon Kaen,Star Mart,,ร้านสะดวกซื้อ,3,สิ่งอำนวยความสะดวก,16.4218744,102.8341305,OpenStreetMap / Overpass API
ขอนแก่น,Khon Kaen,Variety School Shop,,ร้านสะดวกซื้อ,3,สิ่งอำนวยความสะดวก,16.4389904,102.8384021,OpenStreetMap / Overpass API
ขอนแก่น,Khon Kaen,a & p minimart,,ร้านสะดวกซื้อ,3,สิ่งอำนวยความสะดวก,16.5088188,102.8317509,OpenStreetMap / Overpass API
ขอนแก่น,Khon Kaen,จอยมาร์ท,Join Mart,ร้านสะดวกซื้อ,3,สิ่งอำนวยความสะดวก,16.419639,102.8197002,OpenStreetMap / Overpass API
ขอนแก่น,Khon Kaen,จิฟฟี่,Jiffy,ร้านสะดวกซื้อ,3,สิ่งอำนวยความสะดวก,16.4300531,102.8418644,OpenStreetMap / Overpass API
ขอนแก่น,Khon Kaen,ชัยมหาเบเกอรี & ซูเปอร์มาร์เก็ต,Chaimaha Bakery & Supermarket,ร้านสะดวกซื้อ,3,สิ่งอำนวยความสะดวก,16.430222,102.8377546,OpenStreetMap / Overpass API
ขอนแก่น,Khon Kaen,ถูกดี,,ร้านสะดวกซื้อ,3,สิ่งอำนวยความสะดวก,16.5005087,102.8329476,OpenStreetMap / Overpass API
ขอนแก่น,Khon Kaen,มาร์ท,Mart,ร้านสะดวกซื้อ,3,สิ่งอำนวยความสะดวก,16.4629323,102.8324564,OpenStreetMap / Overpass API
ขอนแก่น,Khon Kaen,มาร์ท,Mart,ร้านสะดวกซื้อ,3,สิ่งอำนวยความสะดวก,16.4269426,102.876361,OpenStreetMap / Overpass API
ขอนแก่น,Khon Kaen,มาร์ท,Mart,ร้านสะดวกซื้อ,3,สิ่งอำนวยความสะดวก,16.4502558,102.7598844,OpenStreetMap / Overpass API
ขอนแก่น,Khon Kaen,ร้านค้าสวัสดิการ,,ร้านสะดวกซื้อ,3,สิ่งอำนวยความสะดวก,16.4671205,102.8297339,OpenStreetMap / Overpass API
ขอนแก่น,Khon Kaen,ร้านค้าสวัสดิการ,Welfare store,ร้านสะดวกซื้อ,3,สิ่งอำนวยความสะดวก,16.4296322,102.8490654,OpenStreetMap / Overpass API
ขอนแก่น,Khon Kaen,ร้านค้าสวัสดิการ,Welfare store,ร้านสะดวกซื้อ,3,สิ่งอำนวยความสะดวก,16.430675,102.8489064,OpenStreetMap / Overpass API
ขอนแก่น,Khon Kaen,เคี้ยงซูเปอร์มาร์เก็ต,Khiang Supermarket,ร้านสะดวกซื้อ,3,สิ่งอำนวยความสะดวก,16.4303059,102.8371401,OpenStreetMap / Overpass API
ขอนแก่น,Khon Kaen,เคี้ยงมินิมาร์ท,Khiang Minimart,ร้านสะดวกซื้อ,3,สิ่งอำนวยความสะดวก,16.4304847,102.8335431,OpenStreetMap / Overpass API
ขอนแก่น,Khon Kaen,เทคแคร์มินิมาร์ท,Take Care Minimart,ร้านสะดวกซื้อ,3,สิ่งอำนวยความสะดวก,16.4335606,102.8399221,OpenStreetMap / Overpass API
ขอนแก่น,Khon Kaen,เทสโก้ โลตัส,Tesco Lotus express,ร้านสะดวกซื้อ,3,สิ่งอำนวยความสะดวก,16.4275837,102.8688507,OpenStreetMap / Overpass API
ขอนแก่น,Khon Kaen,เทสโก้ โลตัส,Tesco Lotus express,ร้านสะดวกซื้อ,3,สิ่งอำนวยความสะดวก,16.4215852,102.8064708,OpenStreetMap / Overpass API
ขอนแก่น,Khon Kaen,เลมอนกรีน,Lemon Green,ร้านสะดวกซื้อ,3,สิ่งอำนวยความสะดวก,16.489482,102.8320857,OpenStreetMap / Overpass API
ขอนแก่น,Khon Kaen,เลมอนกรีน,Lemon Green,ร้านสะดวกซื้อ,3,สิ่งอำนวยความสะดวก,16.4743441,102.8330295,OpenStreetMap / Overpass API
ขอนแก่น,Khon Kaen,โลตัส,Lotus,ร้านสะดวกซื้อ,3,สิ่งอำนวยความสะดวก,16.3988487,102.8309762,OpenStreetMap / Overpass API
ขอนแก่น,Khon Kaen,โลตัสเอกซ์เพรส,Lotus Express,ร้านสะดวกซื้อ,3,สิ่งอำนวยความสะดวก,16.4214205,102.8499715,OpenStreetMap / Overpass API
ขอนแก่น,Khon Kaen,ไอริ มินิมาร์ท,Airi Mini Mart,ร้านสะดวกซื้อ,3,สิ่งอำนวยความสะดวก,16.5082167,102.8234892,OpenStreetMap / Overpass API
ขอนแก่น,Khon Kaen,Ban Donyanang School,,โรงเรียน,3,สิ่งอำนวยความสะดวก,16.3609183,102.7343668,OpenStreetMap / Overpass API
ขอนแก่น,Khon Kaen,Patanadek School (Child Development Centre),Patanadek School (Child Development Centre),โรงเรียน,3,สิ่งอำนวยความสะดวก,16.4276167,102.8640917,OpenStreetMap / Overpass API
ขอนแก่น,Khon Kaen,Peace Music Academy,Peace Music Academy,โรงเรียน,3,สิ่งอำนวยความสะดวก,16.4254314,102.8004611,OpenStreetMap / Overpass API
ขอนแก่น,Khon Kaen,School of Professional Carrier Extension & Thai Cultural Spa,,โรงเรียน,3,สิ่งอำนวยความสะดวก,16.4321179,102.836903,OpenStreetMap / Overpass API
ขอนแก่น,Khon Kaen,St Mary School (handicap people),St Mary School (handicap people),โรงเรียน,3,สิ่งอำนวยความสะดวก,16.4559692,102.8220629,OpenStreetMap / Overpass API
ขอนแก่น,Khon Kaen,มหาวิทยาลัยศรีปทุม ขอนแก่น,Sripatum Khon Kaen,โรงเรียน,3,สิ่งอำนวยความสะดวก,16.4269944,102.8528679,OpenStreetMap / Overpass API
ขอนแก่น,Khon Kaen,ศูนย์การศึกษานอกระบบและการศึกษาตามอัธยาศัย อำเภอเมืองขอนแก่น,Muang Khon Kaen District Non-formal and Informal Education Center,โรงเรียน,3,สิ่งอำนวยความสะดวก,16.4180971,102.8266034,OpenStreetMap / Overpass API
ขอนแก่น,Khon Kaen,ศูนย์การเรียนดุลยพัฒน์,Dulyapat Waldorf School,โรงเรียน,3,สิ่งอำนวยความสะดวก,16.3922637,102.8172013,OpenStreetMap / Overpass API
ขอนแก่น,Khon Kaen,ศูนย์พัฒนาเด็กเล็กบ้านโนนรัง,Ban Non Rang Child Development Center,โรงเรียน,3,สิ่งอำนวยความสะดวก,16.5449936,102.6811378,OpenStreetMap / Overpass API
ขอนแก่น,Khon Kaen,โรงรียนบ้านศิลา,Ban Sila School,โรงเรียน,3,สิ่งอำนวยความสะดวก,16.491219,102.8642,OpenStreetMap / Overpass API
ขอนแก่น,Khon Kaen,โรงรียนบ้านหนองหิน,Ban Nong Hin School,โรงเรียน,3,สิ่งอำนวยความสะดวก,16.4816205,102.873959,OpenStreetMap / Overpass API
ขอนแก่น,Khon Kaen,โรงรียนบ้านโกทา,Ban Gotha School,โรงเรียน,3,สิ่งอำนวยความสะดวก,16.4747411,102.860605,OpenStreetMap / Overpass API
ขอนแก่น,Khon Kaen,โรงรียนอานันทนวิทยา,Anantanawittaya School,โรงเรียน,3,สิ่งอำนวยความสะดวก,16.4455614,102.868884,OpenStreetMap / Overpass API
ขอนแก่น,Khon Kaen,โรงเรียน ขอนแก่นวิทยายน 2,Khonkaen Wittayayon 2 School,โรงเรียน,3,สิ่งอำนวยความสะดวก,16.4382513,102.8949666,OpenStreetMap / Overpass API
ขอนแก่น,Khon Kaen,โรงเรียน ขอนแก่นวิทยายน 3,Khon Kaen Witthaya Yon 3 School,โรงเรียน,3,สิ่งอำนวยความสะดวก,16.6047333,102.8097099,OpenStreetMap / Overpass API
ขอนแก่น,Khon Kaen,โรงเรียน บ้านดอนดู่ คุรุราษฎร์วิทยา,Bandondookhururatwittaya School,โรงเรียน,3,สิ่งอำนวยความสะดวก,16.4384828,102.9126048,OpenStreetMap / Overpass API
ขอนแก่น,Khon Kaen,โรงเรียน บ้านบึงเนียมบึงใคร่นุ่น,Ban Bueng Niam Bueng Khrai Nun School,โรงเรียน,3,สิ่งอำนวยความสะดวก,16.4372814,102.9447913,OpenStreetMap / Overpass API
ขอนแก่น,Khon Kaen,โรงเรียนกัลยาณวัตร,Kanlaya Na Wat School,โรงเรียน,3,สิ่งอำนวยความสะดวก,16.4271634,102.8362404,OpenStreetMap / Overpass API
ขอนแก่น,Khon Kaen,โรงเรียนการกุศลวัดหนองแวง,Wat Nong Waeng Sckool,โรงเรียน,3,สิ่งอำนวยความสะดวก,16.4073529,102.834724,OpenStreetMap / Overpass API
ขอนแก่น,Khon Kaen,โรงเรียนการศึกษาคนตาบอดขอนแก่น,School for the Blind Khon Kaen,โรงเรียน,3,สิ่งอำนวยความสะดวก,16.4405028,102.805222,OpenStreetMap / Overpass API
ขอนแก่น,Khon Kaen,โรงเรียนขอนแก่นคริสเตียน,Khon Kaen Christian School,โรงเรียน,3,สิ่งอำนวยความสะดวก,16.4357968,102.8313913,OpenStreetMap / Overpass API
ขอนแก่น,Khon Kaen,โรงเรียนขอนแก่นคริสเตียน,,โรงเรียน,3,สิ่งอำนวยความสะดวก,16.4326209,102.7636162,Google Maps
ขอนแก่น,Khon Kaen,โรงเรียนขอนแก่นวิทยายน,Khon Kaen Wittayayon School,โรงเรียน,3,สิ่งอำนวยความสะดวก,16.432591,102.8349752,OpenStreetMap / Overpass API
ขอนแก่น,Khon Kaen,โรงเรียนขอนแก่นวิทยายน,,โรงเรียน,3,สิ่งอำนวยความสะดวก,16.4995971,102.8110639,Google Maps
ขอนแก่น,Khon Kaen,โรงเรียนขอนแก่นวิทยายน,,โรงเรียน,3,สิ่งอำนวยความสะดวก,16.4326209,102.6915184,Google Maps
ขอนแก่น,Khon Kaen,โรงเรียนขอนแก่นวิทยายน,,โรงเรียน,3,สิ่งอำนวยความสะดวก,16.4340008,102.8110639,Google Maps
ขอนแก่น,Khon Kaen,โรงเรียนขอนแก่นวิทยาลัย,,โรงเรียน,3,สิ่งอำนวยความสะดวก,16.4388355,102.6904298,Google Maps
ขอนแก่น,Khon Kaen,โรงเรียนขอนแก่นวิเทศศึกษา,Khon Kaen Vithes Suksa Bilingual School,โรงเรียน,3,สิ่งอำนวยความสะดวก,16.3985482,102.7471902,OpenStreetMap / Overpass API
ขอนแก่น,Khon Kaen,โรงเรียนขอนแก่นวิเทศศึกษา,,โรงเรียน,3,สิ่งอำนวยความสะดวก,16.3981877,102.6034477,Google Maps
ขอนแก่น,Khon Kaen,โรงเรียนขามแก่นนคร,Kham Kaennakorn School,โรงเรียน,3,สิ่งอำนวยความสะดวก,16.4705591,102.854021,OpenStreetMap / Overpass API
ขอนแก่น,Khon Kaen,โรงเรียนญาณไพศาลวิทยา,Yan Phaisan Witthaya School,โรงเรียน,3,สิ่งอำนวยความสะดวก,16.4431758,102.7929584,OpenStreetMap / Overpass API
ขอนแก่น,Khon Kaen,โรงเรียนดอนยาง,Don Yang School,โรงเรียน,3,สิ่งอำนวยความสะดวก,16.4597509,102.8676782,OpenStreetMap / Overpass API
ขอนแก่น,Khon Kaen,โรงเรียนนครขอนแก่น,Nakhon Khon Kaen School,โรงเรียน,3,สิ่งอำนวยความสะดวก,16.4510992,102.7266028,OpenStreetMap / Overpass API
ขอนแก่น,Khon Kaen,โรงเรียนบ้นกอก,Ban Kok School,โรงเรียน,3,สิ่งอำนวยความสะดวก,16.4244038,102.8017418,OpenStreetMap / Overpass API
ขอนแก่น,Khon Kaen,โรงเรียนบ้านคำไฮหัวทุ่งประชาบำรุง,Ban Kham Hai Hua Thung Pracha Bamrung School,โรงเรียน,3,สิ่งอำนวยความสะดวก,16.435558,102.8060312,OpenStreetMap / Overpass API
ขอนแก่น,Khon Kaen,โรงเรียนบ้านค้อท่อนน้อย,Ban Kho Thon Noi School,โรงเรียน,3,สิ่งอำนวยความสะดวก,16.5571992,102.7685379,OpenStreetMap / Overpass API
ขอนแก่น,Khon Kaen,โรงเรียนบ้านซำจานเนินทอง,Ban Sam Chan Noen Thong School,โรงเรียน,3,สิ่งอำนวยความสะดวก,16.6031421,102.7949928,OpenStreetMap / Overpass API
ขอนแก่น,Khon Kaen,โรงเรียนบ้านดอนแดงดอนน้อยวิทยา,Ban Don Daeng Don Noi Witthaya School,โรงเรียน,3,สิ่งอำนวยความสะดวก,16.3406985,102.8570378,OpenStreetMap / Overpass API
ขอนแก่น,Khon Kaen,โรงเรียนบ้านตอกแป้น,Ban Tok Paen School,โรงเรียน,3,สิ่งอำนวยความสะดวก,16.5392804,102.8094864,OpenStreetMap / Overpass API
ขอนแก่น,Khon Kaen,โรงเรียนบ้านบึงแก,Ban Bueng Kae School,โรงเรียน,3,สิ่งอำนวยความสะดวก,16.5956059,102.8466963,OpenStreetMap / Overpass API
ขอนแก่น,Khon Kaen,โรงเรียนบ้านป่าสังข์หนองลี,Ban Pa Sang Nong Li School,โรงเรียน,3,สิ่งอำนวยความสะดวก,16.352286,102.771411,OpenStreetMap / Overpass API
ขอนแก่น,Khon Kaen,โรงเรียนบ้านพระคือหนองโพธิ์วิทยา,Ban Phra Khue Nong Pho Witthaya School,โรงเรียน,3,สิ่งอำนวยความสะดวก,16.4221389,102.8940228,OpenStreetMap / Overpass API
ขอนแก่น,Khon Kaen,โรงเรียนบ้านลาดนาเพียง,Ban Lat Na Phiang School,โรงเรียน,3,สิ่งอำนวยความสะดวก,16.575434,102.6996119,OpenStreetMap / Overpass API
ขอนแก่น,Khon Kaen,โรงเรียนบ้านสว่างมรรคา,Ban Sawang Mankha School,โรงเรียน,3,สิ่งอำนวยความสะดวก,16.3284394,102.8497447,OpenStreetMap / Overpass API
ขอนแก่น,Khon Kaen,โรงเรียนบ้านสะอาด,Ban Sa-at School,โรงเรียน,3,สิ่งอำนวยความสะดวก,16.4061717,102.7810125,OpenStreetMap / Overpass API
ขอนแก่น,Khon Kaen,โรงเรียนบ้านสาวะถี,Ban Sa Wa Thi School,โรงเรียน,3,สิ่งอำนวยความสะดวก,16.5106342,102.690078,OpenStreetMap / Overpass API
ขอนแก่น,Khon Kaen,โรงเรียนบ้านหนองกุงน้อย,Ban Nong Kung Noi School,โรงเรียน,3,สิ่งอำนวยความสะดวก,16.6187768,102.7054081,OpenStreetMap / Overpass API
ขอนแก่น,Khon Kaen,โรงเรียนบ้านหนองกุงวิทยาคาร,Nongkung Wittayakarn School,โรงเรียน,3,สิ่งอำนวยความสะดวก,16.4981329,102.8342803,OpenStreetMap / Overpass API
ขอนแก่น,Khon Kaen,โรงเรียนบ้านหนองคู,Ban Nong Khu School,โรงเรียน,3,สิ่งอำนวยความสะดวก,16.3894991,102.6959598,OpenStreetMap / Overpass API
ขอนแก่น,Khon Kaen,โรงเรียนบ้านหนองน้ำเกลี้ยง,Ban Nong Nam Kliang School,โรงเรียน,3,สิ่งอำนวยความสะดวก,16.5549031,102.8230911,OpenStreetMap / Overpass API
ขอนแก่น,Khon Kaen,โรงเรียนบ้านหนองปอ,Ban Nong Po School,โรงเรียน,3,สิ่งอำนวยความสะดวก,16.5452729,102.7597511,OpenStreetMap / Overpass API
ขอนแก่น,Khon Kaen,โรงเรียนบ้านหนองปิง,Ban Nong Ping School,โรงเรียน,3,สิ่งอำนวยความสะดวก,16.5386144,102.7106095,OpenStreetMap / Overpass API
ขอนแก่น,Khon Kaen,โรงเรียนบ้านหนองหญ้าแพรกท่าแร่,Ban Nong Ya Phraek Tha Rae School,โรงเรียน,3,สิ่งอำนวยความสะดวก,16.3269433,102.8663266,OpenStreetMap / Overpass API
ขอนแก่น,Khon Kaen,โรงเรียนบ้านหนองเบ็ญ,Ban Nong Ben School,โรงเรียน,3,สิ่งอำนวยความสะดวก,16.6197919,102.8300376,OpenStreetMap / Overpass API
ขอนแก่น,Khon Kaen,โรงเรียนบ้านหินขาว,Ban Hin Khao School,โรงเรียน,3,สิ่งอำนวยความสะดวก,16.535352,102.6598345,OpenStreetMap / Overpass API
ขอนแก่น,Khon Kaen,โรงเรียนบ้านหินลาดวังตอ,Ban Hin Lat Wang To School,โรงเรียน,3,สิ่งอำนวยความสะดวก,16.580132,102.7296833,OpenStreetMap / Overpass API
ขอนแก่น,Khon Kaen,โรงเรียนบ้านเพี้ยฟานโนนตุ่น,Ban Phia Fan Non Tun School,โรงเรียน,3,สิ่งอำนวยความสะดวก,16.5601981,102.6906501,OpenStreetMap / Overpass API
ขอนแก่น,Khon Kaen,โรงเรียนบ้านเลิงเปือย,Ban Loengpuai School,โรงเรียน,3,สิ่งอำนวยความสะดวก,16.4319184,102.8931845,OpenStreetMap / Overpass API
ขอนแก่น,Khon Kaen,โรงเรียนบ้านเหล่านาดี,Ban Lao Na Di School,โรงเรียน,3,สิ่งอำนวยความสะดวก,16.38499,102.7068618,OpenStreetMap / Overpass API
ขอนแก่น,Khon Kaen,โรงเรียนบ้านโคกฟันโปง,Ban Khok Fan Pong School,โรงเรียน,3,สิ่งอำนวยความสะดวก,16.4357572,102.773318,OpenStreetMap / Overpass API
ขอนแก่น,Khon Kaen,โรงเรียนบ้านโคกสีโคกเปี้ย,Ban Khok Si Khok Pia School,โรงเรียน,3,สิ่งอำนวยความสะดวก,16.5331594,102.7984964,OpenStreetMap / Overpass API
ขอนแก่น,Khon Kaen,โรงเรียนบ้านโคกสูงวิทยาคม,Ban Khok Sung Wittayakom School,โรงเรียน,3,สิ่งอำนวยความสะดวก,16.402956,102.7240719,OpenStreetMap / Overpass API
ขอนแก่น,Khon Kaen,โรงเรียนบ้านโนนกู,Ban Non Ku School,โรงเรียน,3,สิ่งอำนวยความสะดวก,16.5089251,102.6684285,OpenStreetMap / Overpass API
ขอนแก่น,Khon Kaen,โรงเรียนบ้านโนนตุ่นประชาบำรุง,Ban Non Tun Pracha Bamrung School,โรงเรียน,3,สิ่งอำนวยความสะดวก,16.3221741,102.891688,OpenStreetMap / Overpass API
ขอนแก่น,Khon Kaen,โรงเรียนบ้านโนนท่อนวิทยา,Ban Non Thon Witthaya School,โรงเรียน,3,สิ่งอำนวยความสะดวก,16.5845861,102.8488865,OpenStreetMap / Overpass API
ขอนแก่น,Khon Kaen,โรงเรียนบ้านโนนม่วง,,โรงเรียน,3,สิ่งอำนวยความสะดวก,16.4896596,102.8136628,OpenStreetMap / Overpass API
ขอนแก่น,Khon Kaen,โรงเรียนบ้านโนนรังวิทยาคาร,Ban Non Rang School,โรงเรียน,3,สิ่งอำนวยความสะดวก,16.545278,102.6909029,OpenStreetMap / Overpass API
ขอนแก่น,Khon Kaen,โรงเรียนบ้านโนนลาน,Ban Non Lan School,โรงเรียน,3,สิ่งอำนวยความสะดวก,16.5540774,102.7855564,OpenStreetMap / Overpass API
ขอนแก่น,Khon Kaen,โรงเรียนบ้านโนนแต้,Ban Non Tae School,โรงเรียน,3,สิ่งอำนวยความสะดวก,16.5315743,102.8161085,OpenStreetMap / Overpass API
ขอนแก่น,Khon Kaen,โรงเรียนพระกุมารเยซูวิทยาขอนแก่น,Convent of the Holy Infant Jesus School Khon Kaen,โรงเรียน,3,สิ่งอำนวยความสะดวก,16.4256746,102.851818,OpenStreetMap / Overpass API
ขอนแก่น,Khon Kaen,โรงเรียนพัฒนาเด็ก ประชาสโมสร,Phattanadek School Pracha Samoson,โรงเรียน,3,สิ่งอำนวยความสะดวก,16.4365281,102.846377,OpenStreetMap / Overpass API
ขอนแก่น,Khon Kaen,โรงเรียนพิมพ์ใจวิทย์,Phimjaiwittaya School,โรงเรียน,3,สิ่งอำนวยความสะดวก,16.3793905,102.7002311,OpenStreetMap / Overpass API
ขอนแก่น,Khon Kaen,โรงเรียนพิศาลปุณณวิทยา,Phisan Pun Na Witthaya School,โรงเรียน,3,สิ่งอำนวยความสะดวก,16.3824732,102.7093502,OpenStreetMap / Overpass API
ขอนแก่น,Khon Kaen,โรงเรียนมณีอนุสรณ์ศึกษา,Manee Anusorn Sueksa School,โรงเรียน,3,สิ่งอำนวยความสะดวก,16.4250382,102.8296884,OpenStreetMap / Overpass API
ขอนแก่น,Khon Kaen,โรงเรียนมหาไถ่ศึกษาขอนแก่น,Holy Redeemer School Khon Kaen,โรงเรียน,3,สิ่งอำนวยความสะดวก,16.4272858,102.8507595,OpenStreetMap / Overpass API
ขอนแก่น,Khon Kaen,โรงเรียนมหาไถ่ศึกษาภาคตะวันออกเฉียงเหนือ,Holy Redeemer School North Eastern Region,โรงเรียน,3,สิ่งอำนวยความสะดวก,16.4237052,102.851981,OpenStreetMap / Overpass API
ขอนแก่น,Khon Kaen,โรงเรียนราษฎร์อุทิศศึกษา,Rat Uthit Suksa School,โรงเรียน,3,สิ่งอำนวยความสะดวก,16.4323901,102.8321323,OpenStreetMap / Overpass API
